{"timestamp":"2025-06-17T18:47:06.753Z","data":{"accelerometer":{"x":0.4,"y":-0.3,"z":0.3,"magnitude":0.58309518948453},"gyroscope":{"x":-6.3,"y":-3.9,"z":4.2},"orientation":{"alpha":223.8,"beta":48.4,"gamma":-29.2},"timestamp":"2025-06-17T18:47:06.753Z","dataCount":1,"battery":{"level":0.41,"charging":false,"chargingTime":0,"dischargingTime":4},"camera":{"active":true,"facingMode":"environment","streaming":true,"width":300,"height":150},"network":{"effectiveType":"4g","downlink":1.75,"rtt":200,"saveData":false},"device":{"userAgent":"Mozilla/5.0 (Linux; Android 10; K) AppleWebKit/537.36 (KHTML, like Gecko) Chrome/137.0.0.0 Mobile Sa","platform":"Linux armv81","language":"en-IN","onLine":true,"hardwareConcurrency":8},"motion":{"isMoving":false,"intensity":9.226904810515471,"type":"walking"},"calculatedOrientation":{"roll":-45,"pitch":-43.31385665828306,"yaw":4.2},"serverLatency":0,"connectionId":7}}
{"timestamp":"2025-06-17T18:47:06.829Z","data":{"accelerometer":{"x":0.07999999999999996,"y":-0.06,"z":-0.25999999999999995,"magnitude":0.27856776554368234},"gyroscope":{"x":1.3000000000000007,"y":27.54,"z":0.6799999999999997},"orientation":{"alpha":223.8,"beta":48.2,"gamma":-26.9},"timestamp":"2025-06-17T18:47:06.829Z","dataCount":2,"battery":{"level":0.41,"charging":false,"chargingTime":0,"dischargingTime":4},"camera":{"active":true,"facingMode":"environment","streaming":true,"width":300,"height":150},"network":{"effectiveType":"4g","downlink":1.75,"rtt":200,"saveData":false},"device":{"userAgent":"Mozilla/5.0 (Linux; Android 10; K) AppleWebKit/537.36 (KHTML, like Gecko) Chrome/137.0.0.0 Mobile Sa","platform":"Linux armv81","language":"en-IN","onLine":true,"hardwareConcurrency":8},"motion":{"isMoving":false,"intensity":9.531432234456318,"type":"stationary"},"calculatedOrientation":{"roll":-167.0053832080835,"pitch":-16.68939703133729,"yaw":0.6799999999999997},"serverLatency":0,"connectionId":7}}
{"timestamp":"2025-06-17T18:47:07.375Z","data":{"accelerometer":{"x":-0.30400000000000005,"y":-0.011999999999999997,"z":0.428,"magnitude":0.5251133211031691},"gyroscope":{"x":1.5400000000000003,"y":31.427999999999997,"z":-2.8240000000000003},"orientation":{"alpha":223.3,"beta":48.2,"gamma":-18.1},"timestamp":"2025-06-17T18:47:07.375Z","dataCount":3,"battery":{"level":0.41,"charging":false,"chargingTime":0,"dischargingTime":4},"camera":{"active":true,"facingMode":"environment","streaming":true,"width":300,"height":150},"network":{"effectiveType":"4g","downlink":1.75,"rtt":200,"saveData":false},"device":{"userAgent":"Mozilla/5.0 (Linux; Android 10; K) AppleWebKit/537.36 (KHTML, like Gecko) Chrome/137.0.0.0 Mobile Sa","platform":"Linux armv81","language":"en-IN","onLine":true,"hardwareConcurrency":8},"motion":{"isMoving":false,"intensity":9.284886678896832,"type":"walking"},"calculatedOrientation":{"roll":-1.6060029892822487,"pitch":35.37480381965857,"yaw":-2.8240000000000003},"serverLatency":0,"connectionId":7}}
{"timestamp":"2025-06-17T18:47:07.404Z","data":{"accelerometer":{"x":-0.06079999999999999,"y":-0.0023999999999999994,"z":0.08559999999999995,"magnitude":0.10502266422063378},"gyroscope":{"x":-0.012000000000000233,"y":0.6855999999999973,"z":-0.8047999999999997},"orientation":{"alpha":223.5,"beta":49.2,"gamma":-16},"timestamp":"2025-06-17T18:47:07.404Z","dataCount":4,"battery":{"level":0.41,"charging":false,"chargingTime":0,"dischargingTime":4},"camera":{"active":true,"facingMode":"environment","streaming":true,"width":300,"height":150},"network":{"effectiveType":"4g","downlink":1.75,"rtt":200,"saveData":false},"device":{"userAgent":"Mozilla/5.0 (Linux; Android 10; K) AppleWebKit/537.36 (KHTML, like Gecko) Chrome/137.0.0.0 Mobile Sa","platform":"Linux armv81","language":"en-IN","onLine":true,"hardwareConcurrency":8},"motion":{"isMoving":false,"intensity":9.704977335779366,"type":"stationary"},"calculatedOrientation":{"roll":-1.6060029892822494,"pitch":35.37480381965858,"yaw":-0.8047999999999997},"serverLatency":0,"connectionId":7}}
{"timestamp":"2025-06-17T18:47:07.429Z","data":{"accelerometer":{"x":-0.09216,"y":-0.00047999999999999974,"z":0.017119999999999982,"magnitude":0.09373788135007106},"gyroscope":{"x":-1.6024,"y":-3.622880000000001,"z":-0.08095999999999992},"orientation":{"alpha":223.5,"beta":49.2,"gamma":-17.1},"timestamp":"2025-06-17T18:47:07.429Z","dataCount":5,"battery":{"level":0.41,"charging":false,"chargingTime":0,"dischargingTime":4},"camera":{"active":true,"facingMode":"environment","streaming":true,"width":300,"height":150},"network":{"effectiveType":"4g","downlink":1.75,"rtt":200,"saveData":false},"device":{"userAgent":"Mozilla/5.0 (Linux; Android 10; K) AppleWebKit/537.36 (KHTML, like Gecko) Chrome/137.0.0.0 Mobile Sa","platform":"Linux armv81","language":"en-IN","onLine":true,"hardwareConcurrency":8},"motion":{"isMoving":false,"intensity":9.71626211864993,"type":"stationary"},"calculatedOrientation":{"roll":-1.6060029892822498,"pitch":79.47242541014177,"yaw":-0.08095999999999992},"serverLatency":0,"connectionId":7}}
{"timestamp":"2025-06-17T18:47:07.671Z","data":{"accelerometer":{"x":-0.098432,"y":-0.00009599999999999995,"z":0.0034239999999999965,"magnitude":0.09849158144735011},"gyroscope":{"x":-2.08048,"y":-13.764576000000002,"z":0.3038080000000001},"orientation":{"alpha":223.5,"beta":49,"gamma":-18.4},"timestamp":"2025-06-17T18:47:07.671Z","dataCount":6,"battery":{"level":0.41,"charging":false,"chargingTime":0,"dischargingTime":4},"camera":{"active":true,"facingMode":"environment","streaming":true,"width":300,"height":150},"network":{"effectiveType":"4g","downlink":1.75,"rtt":200,"saveData":false},"device":{"userAgent":"Mozilla/5.0 (Linux; Android 10; K) AppleWebKit/537.36 (KHTML, like Gecko) Chrome/137.0.0.0 Mobile Sa","platform":"Linux armv81","language":"en-IN","onLine":true,"hardwareConcurrency":8},"motion":{"isMoving":false,"intensity":9.71150841855265,"type":"stationary"},"calculatedOrientation":{"roll":-1.6060029892822498,"pitch":88.00696238557218,"yaw":0.3038080000000001},"serverLatency":0,"connectionId":7}}
{"timestamp":"2025-06-17T18:47:07.978Z","data":{"accelerometer":{"x":-0.019686399999999993,"y":-0.00001919999999999998,"z":0.0006847999999999993,"magnitude":0.019698316289470014},"gyroscope":{"x":-0.9760959999999999,"y":-4.1929152,"z":0.2207616},"orientation":{"alpha":223.6,"beta":48.5,"gamma":-21.7},"timestamp":"2025-06-17T18:47:07.978Z","dataCount":7,"battery":{"level":0.41,"charging":false,"chargingTime":0,"dischargingTime":4},"camera":{"active":true,"facingMode":"environment","streaming":true,"width":300,"height":150},"network":{"effectiveType":"4g","downlink":1.75,"rtt":200,"saveData":false},"device":{"userAgent":"Mozilla/5.0 (Linux; Android 10; K) AppleWebKit/537.36 (KHTML, like Gecko) Chrome/137.0.0.0 Mobile Sa","platform":"Linux armv81","language":"en-IN","onLine":true,"hardwareConcurrency":8},"motion":{"isMoving":false,"intensity":9.790301683710531,"type":"stationary"},"calculatedOrientation":{"roll":-1.6060029892822487,"pitch":88.00696238557218,"yaw":0.2207616},"serverLatency":0,"connectionId":7}}
{"timestamp":"2025-06-17T18:47:08.183Z","data":{"accelerometer":{"x":-0.003937279999999998,"y":-0.000003839999999999994,"z":0.08013696000000001,"magnitude":0.08023362478777586},"gyroscope":{"x":0.12478080000000014,"y":-2.5985830400000003,"z":0.60415232},"orientation":{"alpha":223.7,"beta":48.5,"gamma":-21.9},"timestamp":"2025-06-17T18:47:08.182Z","dataCount":8,"battery":{"level":0.41,"charging":false,"chargingTime":0,"dischargingTime":4},"camera":{"active":true,"facingMode":"environment","streaming":true,"width":300,"height":150},"network":{"effectiveType":"4g","downlink":1.75,"rtt":200,"saveData":false},"device":{"userAgent":"Mozilla/5.0 (Linux; Android 10; K) AppleWebKit/537.36 (KHTML, like Gecko) Chrome/137.0.0.0 Mobile Sa","platform":"Linux armv81","language":"en-IN","onLine":true,"hardwareConcurrency":8},"motion":{"isMoving":false,"intensity":9.729766375212225,"type":"stationary"},"calculatedOrientation":{"roll":-0.0027454971234476665,"pitch":2.812787868773314,"yaw":0.60415232},"serverLatency":0,"connectionId":7}}
{"timestamp":"2025-06-17T18:47:08.221Z","data":{"accelerometer":{"x":-0.08078745600000001,"y":-0.08000076800000001,"z":0.016027392,"magnitude":0.1148199164860497},"gyroscope":{"x":-2.37504384,"y":0.6002833920000001,"z":-1.2391695360000003},"orientation":{"alpha":223.5,"beta":48.2,"gamma":-22.3},"timestamp":"2025-06-17T18:47:08.221Z","dataCount":9,"battery":{"level":0.41,"charging":false,"chargingTime":0,"dischargingTime":4},"camera":{"active":true,"facingMode":"environment","streaming":true,"width":300,"height":150},"network":{"effectiveType":"4g","downlink":1.75,"rtt":200,"saveData":false},"device":{"userAgent":"Mozilla/5.0 (Linux; Android 10; K) AppleWebKit/537.36 (KHTML, like Gecko) Chrome/137.0.0.0 Mobile Sa","platform":"Linux armv81","language":"en-IN","onLine":true,"hardwareConcurrency":8},"motion":{"isMoving":false,"intensity":9.69518008351395,"type":"stationary"},"calculatedOrientation":{"roll":-78.67131117807969,"pitch":44.71666515836172,"yaw":-1.2391695360000003},"serverLatency":0,"connectionId":7}}
{"timestamp":"2025-06-17T18:47:08.491Z","data":{"accelerometer":{"x":0.0638425088,"y":-0.016000153599999997,"z":0.0832054784,"magnitude":0.10608969073795313},"gyroscope":{"x":-1.035008768,"y":0.040056678400000045,"z":3.1121660928},"orientation":{"alpha":223.5,"beta":47.5,"gamma":-22.7},"timestamp":"2025-06-17T18:47:08.491Z","dataCount":10,"gps":{"latitude":13.082,"longitude":77.667,"altitude":810,"accuracy":44.777,"speed":0,"heading":0,"timestamp":1750186027665},"battery":{"level":0.41,"charging":false,"chargingTime":0,"dischargingTime":4},"camera":{"active":true,"facingMode":"environment","streaming":true,"width":300,"height":150},"network":{"effectiveType":"4g","downlink":1.75,"rtt":200,"saveData":false},"device":{"userAgent":"Mozilla/5.0 (Linux; Android 10; K) AppleWebKit/537.36 (KHTML, like Gecko) Chrome/137.0.0.0 Mobile Sa","platform":"Linux armv81","language":"en-IN","onLine":true,"hardwareConcurrency":8},"motion":{"isMoving":false,"intensity":9.703910309262048,"type":"stationary"},"calculatedOrientation":{"roll":-10.884929451240994,"pitch":-36.997389158297615,"yaw":3.1121660928},"serverLatency":0,"connectionId":7}}
{"timestamp":"2025-06-17T18:47:08.695Z","data":{"accelerometer":{"x":0.09276850176000001,"y":-0.0032000307199999984,"z":0.016641095679999995,"magnitude":0.09430355868595301},"gyroscope":{"x":-0.2870017535999999,"y":-0.23198866431999998,"z":1.42243321856},"orientation":{"alpha":223.8,"beta":47.1,"gamma":-22.6},"timestamp":"2025-06-17T18:47:08.695Z","dataCount":11,"gps":{"latitude":13.082,"longitude":77.667,"altitude":810,"accuracy":44.777,"speed":0,"heading":0,"timestamp":1750186027665},"battery":{"level":0.41,"charging":false,"chargingTime":0,"dischargingTime":4},"camera":{"active":true,"facingMode":"environment","streaming":true,"width":300,"height":150},"network":{"effectiveType":"4g","downlink":1.75,"rtt":200,"saveData":false},"device":{"userAgent":"Mozilla/5.0 (Linux; Android 10; K) AppleWebKit/537.36 (KHTML, like Gecko) Chrome/137.0.0.0 Mobile Sa","platform":"Linux armv81","language":"en-IN","onLine":true,"hardwareConcurrency":8},"motion":{"isMoving":false,"intensity":9.715696441314048,"type":"stationary"},"calculatedOrientation":{"roll":-10.884929451240994,"pitch":-79.64794162645741,"yaw":1.42243321856},"serverLatency":0,"connectionId":7}}
{"timestamp":"2025-06-17T18:47:08.900Z","data":{"accelerometer":{"x":0.018553700352000005,"y":-0.0006400061439999997,"z":0.003328219135999998,"magnitude":0.018860711737190602},"gyroscope":{"x":1.6225996492800001,"y":-0.446397732864,"z":1.7244866437120001},"orientation":{"alpha":224.5,"beta":47,"gamma":-22.8},"timestamp":"2025-06-17T18:47:08.900Z","dataCount":12,"gps":{"latitude":13.082,"longitude":77.667,"altitude":810,"accuracy":44.777,"speed":0,"heading":0,"timestamp":1750186027665},"battery":{"level":0.41,"charging":false,"chargingTime":0,"dischargingTime":4},"camera":{"active":true,"facingMode":"environment","streaming":true,"width":300,"height":150},"network":{"effectiveType":"4g","downlink":1.75,"rtt":200,"saveData":false},"device":{"userAgent":"Mozilla/5.0 (Linux; Android 10; K) AppleWebKit/537.36 (KHTML, like Gecko) Chrome/137.0.0.0 Mobile Sa","platform":"Linux armv81","language":"en-IN","onLine":true,"hardwareConcurrency":8},"motion":{"isMoving":false,"intensity":9.79113928826281,"type":"stationary"},"calculatedOrientation":{"roll":-10.884929451240998,"pitch":-79.64794162645742,"yaw":1.7244866437120001},"serverLatency":0,"connectionId":7}}
{"timestamp":"2025-06-17T18:47:09.104Z","data":{"accelerometer":{"x":-0.23628925992959998,"y":-0.00012800122879999987,"z":-0.1593343561728,"magnitude":0.2849913468851174},"gyroscope":{"x":-0.31548007014400037,"y":0.8707204534272001,"z":6.4248973287424},"orientation":{"alpha":225.4,"beta":47,"gamma":-23.4},"timestamp":"2025-06-17T18:47:09.104Z","dataCount":13,"gps":{"latitude":13.082,"longitude":77.667,"altitude":810,"accuracy":44.777,"speed":0,"heading":0,"timestamp":1750186027665},"battery":{"level":0.41,"charging":false,"chargingTime":0,"dischargingTime":4},"camera":{"active":true,"facingMode":"environment","streaming":true,"width":300,"height":150},"network":{"effectiveType":"4g","downlink":1.75,"rtt":200,"saveData":false},"device":{"userAgent":"Mozilla/5.0 (Linux; Android 10; K) AppleWebKit/537.36 (KHTML, like Gecko) Chrome/137.0.0.0 Mobile Sa","platform":"Linux armv81","language":"en-IN","onLine":true,"hardwareConcurrency":8},"motion":{"isMoving":false,"intensity":9.525008653114883,"type":"stationary"},"calculatedOrientation":{"roll":-179.9539714548627,"pitch":56.007452060681324,"yaw":6.4248973287424},"serverLatency":0,"connectionId":7}}
{"timestamp":"2025-06-17T18:47:09.312Z","data":{"accelerometer":{"x":0.7527421480140801,"y":-0.8000256002457601,"z":-0.35186687123456006,"magnitude":1.1534608781912972},"gyroscope":{"x":-22.8630960140288,"y":52.81414409068544,"z":-3.7550205342515213},"orientation":{"alpha":225.4,"beta":42.9,"gamma":-23.9},"timestamp":"2025-06-17T18:47:09.312Z","dataCount":14,"gps":{"latitude":13.082,"longitude":77.667,"altitude":810,"accuracy":44.777,"speed":0,"heading":0,"timestamp":1750186027665},"battery":{"level":0.41,"charging":false,"chargingTime":0,"dischargingTime":4},"camera":{"active":true,"facingMode":"environment","streaming":true,"width":300,"height":150},"network":{"effectiveType":"4g","downlink":1.75,"rtt":200,"saveData":false},"device":{"userAgent":"Mozilla/5.0 (Linux; Android 10; K) AppleWebKit/537.36 (KHTML, like Gecko) Chrome/137.0.0.0 Mobile Sa","platform":"Linux armv81","language":"en-IN","onLine":true,"hardwareConcurrency":8},"motion":{"isMoving":false,"intensity":8.656539121808704,"type":"walking"},"calculatedOrientation":{"roll":-113.74083017075012,"pitch":-40.737497830154176,"yaw":-3.7550205342515213},"serverLatency":0,"connectionId":7}}
{"timestamp":"2025-06-17T18:47:09.407Z","data":{"accelerometer":{"x":-0.40945157039718394,"y":-0.000005120049151874362,"z":0.8096266257530882,"magnitude":0.9072738625438661},"gyroscope":{"x":-21.93261920280576,"y":-37.03717118186291,"z":-12.831004106850305},"orientation":{"alpha":215.5,"beta":36,"gamma":-20.2},"timestamp":"2025-06-17T18:47:09.407Z","dataCount":15,"gps":{"latitude":13.082,"longitude":77.667,"altitude":810,"accuracy":44.777,"speed":0,"heading":0,"timestamp":1750186027665},"battery":{"level":0.41,"charging":false,"chargingTime":0,"dischargingTime":4},"camera":{"active":true,"facingMode":"environment","streaming":true,"width":300,"height":150},"network":{"effectiveType":"4g","downlink":1.75,"rtt":200,"saveData":false},"device":{"userAgent":"Mozilla/5.0 (Linux; Android 10; K) AppleWebKit/537.36 (KHTML, like Gecko) Chrome/137.0.0.0 Mobile Sa","platform":"Linux armv81","language":"en-IN","onLine":true,"hardwareConcurrency":8},"motion":{"isMoving":false,"intensity":8.902726137456135,"type":"walking"},"calculatedOrientation":{"roll":-0.0003623364128188788,"pitch":26.827041708881342,"yaw":-12.831004106850305},"serverLatency":0,"connectionId":7}}
{"timestamp":"2025-06-17T18:47:09.822Z","data":{"accelerometer":{"x":-0.3218903140794368,"y":-0.0000010240098303748724,"z":-0.2380746748493825,"magnitude":0.40036598894492303},"gyroscope":{"x":2.5734761594388473,"y":-8.687434236372582,"z":-16.00620082137006},"orientation":{"alpha":212.2,"beta":39.5,"gamma":-19.3},"timestamp":"2025-06-17T18:47:09.822Z","dataCount":16,"gps":{"latitude":13.082,"longitude":77.667,"altitude":810,"accuracy":44.777,"speed":0,"heading":0,"timestamp":1750186027665},"battery":{"level":0.41,"charging":false,"chargingTime":0,"dischargingTime":4},"camera":{"active":true,"facingMode":"environment","streaming":true,"width":300,"height":150},"network":{"effectiveType":"4g","downlink":1.75,"rtt":200,"saveData":false},"device":{"userAgent":"Mozilla/5.0 (Linux; Android 10; K) AppleWebKit/537.36 (KHTML, like Gecko) Chrome/137.0.0.0 Mobile Sa","platform":"Linux armv81","language":"en-IN","onLine":true,"hardwareConcurrency":8},"motion":{"isMoving":false,"intensity":9.409634011055077,"type":"stationary"},"calculatedOrientation":{"roll":-179.9997535586618,"pitch":53.5128415459269,"yaw":-16.00620082137006},"serverLatency":0,"connectionId":7}}
{"timestamp":"2025-06-17T18:47:09.855Z","data":{"accelerometer":{"x":-0.06437806281588737,"y":-0.08000020480196608,"z":0.2723850650301235,"magnitude":0.29109825040997317},"gyroscope":{"x":-3.405304768112231,"y":2.9825131527254847,"z":-8.001240164274012},"orientation":{"alpha":210.3,"beta":39.5,"gamma":-16.9},"timestamp":"2025-06-17T18:47:09.855Z","dataCount":17,"gps":{"latitude":13.082,"longitude":77.667,"altitude":810,"accuracy":44.777,"speed":0,"heading":0,"timestamp":1750186027665},"battery":{"level":0.41,"charging":false,"chargingTime":0,"dischargingTime":4},"camera":{"active":true,"facingMode":"environment","streaming":true,"width":300,"height":150},"network":{"effectiveType":"4g","downlink":1.75,"rtt":200,"saveData":false},"device":{"userAgent":"Mozilla/5.0 (Linux; Android 10; K) AppleWebKit/537.36 (KHTML, like Gecko) Chrome/137.0.0.0 Mobile Sa","platform":"Linux armv81","language":"en-IN","onLine":true,"hardwareConcurrency":8},"motion":{"isMoving":false,"intensity":9.518901749590027,"type":"stationary"},"calculatedOrientation":{"roll":-16.367651359689116,"pitch":12.776927019054748,"yaw":-8.001240164274012},"serverLatency":0,"connectionId":7}}
{"timestamp":"2025-06-17T18:47:10.231Z","data":{"accelerometer":{"x":0.14712438743682255,"y":-0.17600004096039323,"z":-0.26552298699397536,"magnitude":0.350890376640516},"gyroscope":{"x":1.5589390463775539,"y":4.836502630545096,"z":-1.0402480328548025},"orientation":{"alpha":209.7,"beta":40,"gamma":-15.8},"timestamp":"2025-06-17T18:47:10.231Z","dataCount":18,"gps":{"latitude":13.082,"longitude":77.667,"altitude":810,"accuracy":44.777,"speed":0,"heading":0,"timestamp":1750186027665},"battery":{"level":0.41,"charging":false,"chargingTime":0,"dischargingTime":4},"camera":{"active":true,"facingMode":"environment","streaming":true,"width":300,"height":150},"network":{"effectiveType":"4g","downlink":1.75,"rtt":200,"saveData":false},"device":{"userAgent":"Mozilla/5.0 (Linux; Android 10; K) AppleWebKit/537.36 (KHTML, like Gecko) Chrome/137.0.0.0 Mobile Sa","platform":"Linux armv81","language":"en-IN","onLine":true,"hardwareConcurrency":8},"motion":{"isMoving":false,"intensity":9.459109623359485,"type":"stationary"},"calculatedOrientation":{"roll":-146.46187284315926,"pitch":-24.789691453561694,"yaw":-1.0402480328548025},"serverLatency":0,"connectionId":7}}
{"timestamp":"2025-06-17T18:47:10.234Z","data":{"accelerometer":{"x":0.18942487748736453,"y":-0.19520000819207867,"z":-0.13310459739879507,"magnitude":0.30282282156070395},"gyroscope":{"x":-2.16821219072449,"y":4.007300526109019,"z":-0.6880496065709605},"orientation":{"alpha":209.7,"beta":40.1,"gamma":-15.6},"timestamp":"2025-06-17T18:47:10.234Z","dataCount":19,"gps":{"latitude":13.082,"longitude":77.667,"altitude":810,"accuracy":44.777,"speed":0,"heading":0,"timestamp":1750186027665},"battery":{"level":0.41,"charging":false,"chargingTime":0,"dischargingTime":4},"camera":{"active":true,"facingMode":"environment","streaming":true,"width":300,"height":150},"network":{"effectiveType":"4g","downlink":1.75,"rtt":200,"saveData":false},"device":{"userAgent":"Mozilla/5.0 (Linux; Android 10; K) AppleWebKit/537.36 (KHTML, like Gecko) Chrome/137.0.0.0 Mobile Sa","platform":"Linux armv81","language":"en-IN","onLine":true,"hardwareConcurrency":8},"motion":{"isMoving":false,"intensity":9.507177178439296,"type":"stationary"},"calculatedOrientation":{"roll":-124.28961855310588,"pitch":-38.721127220793555,"yaw":-0.6880496065709605},"serverLatency":0,"connectionId":7}}
{"timestamp":"2025-06-17T18:47:10.537Z","data":{"accelerometer":{"x":-0.12211502450252715,"y":-0.03904000163841573,"z":-0.026620919479759003,"magnitude":0.13093843702720803},"gyroscope":{"x":-1.313642438144898,"y":2.1614601052218037,"z":-2.0576099213141923},"orientation":{"alpha":208.3,"beta":40,"gamma":-14.4},"timestamp":"2025-06-17T18:47:10.537Z","dataCount":20,"gps":{"latitude":13.082,"longitude":77.667,"altitude":810,"accuracy":44.777,"speed":0,"heading":0,"timestamp":1750186027665},"battery":{"level":0.41,"charging":false,"chargingTime":0,"dischargingTime":4},"camera":{"active":true,"facingMode":"environment","streaming":true,"width":300,"height":150},"network":{"effectiveType":"4g","downlink":1.75,"rtt":200,"saveData":false},"device":{"userAgent":"Mozilla/5.0 (Linux; Android 10; K) AppleWebKit/537.36 (KHTML, like Gecko) Chrome/137.0.0.0 Mobile Sa","platform":"Linux armv81","language":"en-IN","onLine":true,"hardwareConcurrency":8},"motion":{"isMoving":false,"intensity":9.679061562972793,"type":"stationary"},"calculatedOrientation":{"roll":-124.28961855310588,"pitch":68.84603280296204,"yaw":-2.0576099213141923},"serverLatency":0,"connectionId":7}}
{"timestamp":"2025-06-17T18:47:10.624Z","data":{"accelerometer":{"x":-0.02442300490050542,"y":-0.0078080003276831435,"z":0.0746758161040482,"magnitude":0.07895521229338084},"gyroscope":{"x":0.8572715123710206,"y":0.9122920210443608,"z":-1.3715219842628383},"orientation":{"alpha":208.2,"beta":40,"gamma":-14.1},"timestamp":"2025-06-17T18:47:10.624Z","dataCount":21,"gps":{"latitude":13.082,"longitude":77.667,"altitude":810,"accuracy":44.777,"speed":0,"heading":0,"timestamp":1750186027665},"battery":{"level":0.41,"charging":false,"chargingTime":0,"dischargingTime":4},"camera":{"active":true,"facingMode":"environment","streaming":true,"width":300,"height":150},"network":{"effectiveType":"4g","downlink":1.75,"rtt":200,"saveData":false},"device":{"userAgent":"Mozilla/5.0 (Linux; Android 10; K) AppleWebKit/537.36 (KHTML, like Gecko) Chrome/137.0.0.0 Mobile Sa","platform":"Linux armv81","language":"en-IN","onLine":true,"hardwareConcurrency":8},"motion":{"isMoving":false,"intensity":9.731044787706619,"type":"stationary"},"calculatedOrientation":{"roll":-5.969078402820801,"pitch":18.018696876607024,"yaw":-1.3715219842628383},"serverLatency":0,"connectionId":7}}
{"timestamp":"2025-06-17T18:47:10.844Z","data":{"accelerometer":{"x":0.07511539901989893,"y":-0.08156160006553663,"z":0.09493516322080965,"magnitude":0.1459702126837217},"gyroscope":{"x":-0.708545697525796,"y":2.2624584042088722,"z":0.7656956031474325},"orientation":{"alpha":208.3,"beta":40.2,"gamma":-14.1},"timestamp":"2025-06-17T18:47:10.844Z","dataCount":22,"gps":{"latitude":13.082,"longitude":77.667,"altitude":810,"accuracy":44.777,"speed":0,"heading":0,"timestamp":1750186027665},"battery":{"level":0.41,"charging":false,"chargingTime":0,"dischargingTime":4},"camera":{"active":true,"facingMode":"environment","streaming":true,"width":300,"height":150},"network":{"effectiveType":"4g","downlink":1.75,"rtt":200,"saveData":false},"device":{"userAgent":"Mozilla/5.0 (Linux; Android 10; K) AppleWebKit/537.36 (KHTML, like Gecko) Chrome/137.0.0.0 Mobile Sa","platform":"Linux armv81","language":"en-IN","onLine":true,"hardwareConcurrency":8},"motion":{"isMoving":false,"intensity":9.664029787316279,"type":"stationary"},"calculatedOrientation":{"roll":-40.66684801530315,"pitch":-30.970322796403998,"yaw":0.7656956031474325},"serverLatency":0,"connectionId":7}}
{"timestamp":"2025-06-17T18:47:11.050Z","data":{"accelerometer":{"x":-0.14497692019602026,"y":0.06368767998689266,"z":-0.061012967355838096,"magnitude":0.1696968183473121},"gyroscope":{"x":1.5382908604948409,"y":0.2924916808417741,"z":-1.9268608793705138},"orientation":{"alpha":208,"beta":40.4,"gamma":-13.7},"timestamp":"2025-06-17T18:47:11.049Z","dataCount":23,"gps":{"latitude":13.082,"longitude":77.667,"altitude":810,"accuracy":44.777,"speed":0,"heading":0,"timestamp":1750186027665},"battery":{"level":0.41,"charging":false,"chargingTime":0,"dischargingTime":4},"camera":{"active":true,"facingMode":"environment","streaming":true,"width":300,"height":150},"network":{"effectiveType":"4g","downlink":1.75,"rtt":200,"saveData":false},"device":{"userAgent":"Mozilla/5.0 (Linux; Android 10; K) AppleWebKit/537.36 (KHTML, like Gecko) Chrome/137.0.0.0 Mobile Sa","platform":"Linux armv81","language":"en-IN","onLine":true,"hardwareConcurrency":8},"motion":{"isMoving":false,"intensity":9.640303181652689,"type":"stationary"},"calculatedOrientation":{"roll":133.77124735570544,"pitch":58.685689067162755,"yaw":-1.9268608793705138},"serverLatency":0,"connectionId":7}}
{"timestamp":"2025-06-17T18:47:11.254Z","data":{"accelerometer":{"x":-0.028995384039204042,"y":-0.06726246400262147,"z":-0.17220259347116762,"magnitude":0.1871328526942319},"gyroscope":{"x":-2.1723418279010325,"y":1.338498336168355,"z":-0.9453721758741027},"orientation":{"alpha":207.8,"beta":40.5,"gamma":-13.6},"timestamp":"2025-06-17T18:47:11.254Z","dataCount":24,"gps":{"latitude":13.082,"longitude":77.667,"altitude":810,"accuracy":44.777,"speed":0,"heading":0,"timestamp":1750186027665},"battery":{"level":0.41,"charging":false,"chargingTime":0,"dischargingTime":4},"camera":{"active":true,"facingMode":"environment","streaming":true,"width":300,"height":150},"network":{"effectiveType":"4g","downlink":1.75,"rtt":200,"saveData":false},"device":{"userAgent":"Mozilla/5.0 (Linux; Android 10; K) AppleWebKit/537.36 (KHTML, like Gecko) Chrome/137.0.0.0 Mobile Sa","platform":"Linux armv81","language":"en-IN","onLine":true,"hardwareConcurrency":8},"motion":{"isMoving":false,"intensity":9.622867147305769,"type":"stationary"},"calculatedOrientation":{"roll":-158.66434566755927,"pitch":8.913632536991365,"yaw":-0.9453721758741027},"serverLatency":0,"connectionId":7}}
{"timestamp":"2025-06-17T18:47:11.464Z","data":{"accelerometer":{"x":-0.08579907680784082,"y":0.0665475071994757,"z":-0.03444051869423351,"magnitude":0.11391313191844867},"gyroscope":{"x":6.045531634419794,"y":-4.85230033276633,"z":0.37092556482517947},"orientation":{"alpha":207.7,"beta":40.6,"gamma":-13.2},"timestamp":"2025-06-17T18:47:11.464Z","dataCount":25,"gps":{"latitude":13.082,"longitude":77.667,"altitude":810,"accuracy":44.777,"speed":0,"heading":0,"timestamp":1750186027665},"battery":{"level":0.41,"charging":false,"chargingTime":0,"dischargingTime":4},"camera":{"active":true,"facingMode":"environment","streaming":true,"width":300,"height":150},"network":{"effectiveType":"4g","downlink":1.75,"rtt":200,"saveData":false},"device":{"userAgent":"Mozilla/5.0 (Linux; Android 10; K) AppleWebKit/537.36 (KHTML, like Gecko) Chrome/137.0.0.0 Mobile Sa","platform":"Linux armv81","language":"en-IN","onLine":true,"hardwareConcurrency":8},"motion":{"isMoving":false,"intensity":9.696086868081553,"type":"stationary"},"calculatedOrientation":{"roll":117.3630477780593,"pitch":48.868112410328735,"yaw":0.37092556482517947},"serverLatency":0,"connectionId":7}}
{"timestamp":"2025-06-17T18:47:11.663Z","data":{"accelerometer":{"x":0.06284018463843186,"y":-0.1466904985601049,"z":0.23311189626115333,"magnitude":0.2825033581245983},"gyroscope":{"x":-3.5908936731160424,"y":2.8695399334467346,"z":0.6341851129650359},"orientation":{"alpha":208.4,"beta":40.7,"gamma":-13.6},"timestamp":"2025-06-17T18:47:11.663Z","dataCount":26,"gps":{"latitude":13.082,"longitude":77.667,"altitude":810,"accuracy":44.777,"speed":0,"heading":0,"timestamp":1750186027665},"battery":{"level":0.41,"charging":false,"chargingTime":0,"dischargingTime":4},"camera":{"active":true,"facingMode":"environment","streaming":true,"width":300,"height":150},"network":{"effectiveType":"4g","downlink":1.75,"rtt":200,"saveData":false},"device":{"userAgent":"Mozilla/5.0 (Linux; Android 10; K) AppleWebKit/537.36 (KHTML, like Gecko) Chrome/137.0.0.0 Mobile Sa","platform":"Linux armv81","language":"en-IN","onLine":true,"hardwareConcurrency":8},"motion":{"isMoving":false,"intensity":9.527496641875402,"type":"stationary"},"calculatedOrientation":{"roll":-32.18100682627357,"pitch":-12.85241511083097,"yaw":0.6341851129650359},"serverLatency":0,"connectionId":7}}
{"timestamp":"2025-06-17T18:47:11.869Z","data":{"accelerometer":{"x":-0.06743196307231364,"y":0.05066190028797904,"z":-0.19337762074776935,"magnitude":0.21097061878527806},"gyroscope":{"x":-0.2381787346232085,"y":0.733907986689347,"z":-2.433162977406993},"orientation":{"alpha":207.8,"beta":40.7,"gamma":-13.2},"timestamp":"2025-06-17T18:47:11.869Z","dataCount":27,"gps":{"latitude":13.082,"longitude":77.667,"altitude":810,"accuracy":44.777,"speed":0,"heading":0,"timestamp":1750186027665},"battery":{"level":0.41,"charging":false,"chargingTime":0,"dischargingTime":4},"camera":{"active":true,"facingMode":"environment","streaming":true,"width":300,"height":150},"network":{"effectiveType":"4g","downlink":1.75,"rtt":200,"saveData":false},"device":{"userAgent":"Mozilla/5.0 (Linux; Android 10; K) AppleWebKit/537.36 (KHTML, like Gecko) Chrome/137.0.0.0 Mobile Sa","platform":"Linux armv81","language":"en-IN","onLine":true,"hardwareConcurrency":8},"motion":{"isMoving":false,"intensity":9.599029381214722,"type":"stationary"},"calculatedOrientation":{"roll":165.31934236801018,"pitch":18.640385298291747,"yaw":-2.433162977406993},"serverLatency":0,"connectionId":7}}
{"timestamp":"2025-06-17T18:47:12.009Z","data":{"accelerometer":{"x":0.06651360738553727,"y":-0.0698676199424042,"z":-0.11867552414955387,"magnitude":0.15293601379670185},"gyroscope":{"x":0.5123642530753583,"y":0.30678159733786936,"z":1.033367404518601},"orientation":{"alpha":207.8,"beta":40.9,"gamma":-12.7},"timestamp":"2025-06-17T18:47:12.009Z","dataCount":28,"gps":{"latitude":13.082,"longitude":77.667,"altitude":810,"accuracy":44.777,"speed":0,"heading":0,"timestamp":1750186027665},"battery":{"level":0.41,"charging":false,"chargingTime":0,"dischargingTime":4},"camera":{"active":true,"facingMode":"environment","streaming":true,"width":300,"height":150},"network":{"effectiveType":"4g","downlink":1.75,"rtt":200,"saveData":false},"device":{"userAgent":"Mozilla/5.0 (Linux; Android 10; K) AppleWebKit/537.36 (KHTML, like Gecko) Chrome/137.0.0.0 Mobile Sa","platform":"Linux armv81","language":"en-IN","onLine":true,"hardwareConcurrency":8},"motion":{"isMoving":false,"intensity":9.6570639862033,"type":"stationary"},"calculatedOrientation":{"roll":-149.51348096747952,"pitch":-25.779652727298338,"yaw":1.033367404518601},"serverLatency":0,"connectionId":7}}
{"timestamp":"2025-06-17T18:47:12.210Z","data":{"accelerometer":{"x":-0.06669727852289256,"y":-0.01397352398848084,"z":-0.023735104829910772,"magnitude":0.07216052616426663},"gyroscope":{"x":-0.7775271493849285,"y":0.14135631946757388,"z":-0.67332651909628},"orientation":{"alpha":207.8,"beta":40.8,"gamma":-12.7},"timestamp":"2025-06-17T18:47:12.210Z","dataCount":29,"gps":{"latitude":13.082,"longitude":77.667,"altitude":810,"accuracy":27.288,"speed":0.122,"heading":316.463,"timestamp":1750186031496},"battery":{"level":0.41,"charging":false,"chargingTime":0,"dischargingTime":4},"camera":{"active":true,"facingMode":"environment","streaming":true,"width":300,"height":150},"network":{"effectiveType":"4g","downlink":1.75,"rtt":200,"saveData":false},"device":{"userAgent":"Mozilla/5.0 (Linux; Android 10; K) AppleWebKit/537.36 (KHTML, like Gecko) Chrome/137.0.0.0 Mobile Sa","platform":"Linux armv81","language":"en-IN","onLine":true,"hardwareConcurrency":8},"motion":{"isMoving":false,"intensity":9.737839473835734,"type":"stationary"},"calculatedOrientation":{"roll":-149.51348096747952,"pitch":67.56158908524617,"yaw":-0.67332651909628},"serverLatency":0,"connectionId":7}}
{"timestamp":"2025-06-17T18:47:12.400Z","data":{"accelerometer":{"x":0.14666054429542152,"y":-0.16279470479769617,"z":-0.24474702096598216,"magnitude":0.3285004344516476},"gyroscope":{"x":-0.15550542987698568,"y":-0.6117287361064853,"z":2.025334696180744},"orientation":{"alpha":208.1,"beta":41,"gamma":-12.7},"timestamp":"2025-06-17T18:47:12.400Z","dataCount":30,"gps":{"latitude":13.082,"longitude":77.667,"altitude":810,"accuracy":27.288,"speed":0.122,"heading":316.463,"timestamp":1750186031496},"battery":{"level":0.41,"charging":false,"chargingTime":0,"dischargingTime":4},"camera":{"active":true,"facingMode":"environment","streaming":true,"width":300,"height":150},"network":{"effectiveType":"4g","downlink":1.75,"rtt":200,"saveData":false},"device":{"userAgent":"Mozilla/5.0 (Linux; Android 10; K) AppleWebKit/537.36 (KHTML, like Gecko) Chrome/137.0.0.0 Mobile Sa","platform":"Linux armv81","language":"en-IN","onLine":true,"hardwareConcurrency":8},"motion":{"isMoving":false,"intensity":9.481499565548352,"type":"stationary"},"calculatedOrientation":{"roll":-146.36993654254252,"pitch":-26.516444044572328,"yaw":2.025334696180744},"serverLatency":0,"connectionId":7}}
{"timestamp":"2025-06-17T18:47:12.790Z","data":{"accelerometer":{"x":-0.1306678911409157,"y":-0.032558940959539234,"z":-0.12894940419319645,"magnitude":0.18644605453964777},"gyroscope":{"x":-0.35110108597539713,"y":-0.522345747221297,"z":-0.634933060763851},"orientation":{"alpha":207.8,"beta":40.9,"gamma":-12.7},"timestamp":"2025-06-17T18:47:12.790Z","dataCount":31,"gps":{"latitude":13.082,"longitude":77.667,"altitude":810,"accuracy":27.288,"speed":0.122,"heading":316.463,"timestamp":1750186031496},"battery":{"level":0.41,"charging":false,"chargingTime":0,"dischargingTime":4},"camera":{"active":true,"facingMode":"environment","streaming":true,"width":300,"height":150},"network":{"effectiveType":"4g","downlink":1.75,"rtt":200,"saveData":false},"device":{"userAgent":"Mozilla/5.0 (Linux; Android 10; K) AppleWebKit/537.36 (KHTML, like Gecko) Chrome/137.0.0.0 Mobile Sa","platform":"Linux armv81","language":"en-IN","onLine":true,"hardwareConcurrency":8},"motion":{"isMoving":false,"intensity":9.623553945460353,"type":"stationary"},"calculatedOrientation":{"roll":-165.8293497444501,"pitch":44.4940219098044,"yaw":-0.634933060763851},"serverLatency":0,"connectionId":7}}
{"timestamp":"2025-06-17T18:47:12.801Z","data":{"accelerometer":{"x":-0.10613357822818315,"y":0.07348821180809216,"z":0.05421011916136073,"magnitude":0.14001282341899193},"gyroscope":{"x":-2.55022021719508,"y":-9.22446914944426,"z":-1.5669866121527702},"orientation":{"alpha":207.3,"beta":40.2,"gamma":-14.6},"timestamp":"2025-06-17T18:47:12.801Z","dataCount":32,"gps":{"latitude":13.082,"longitude":77.667,"altitude":810,"accuracy":27.288,"speed":0.122,"heading":316.463,"timestamp":1750186031496},"battery":{"level":0.41,"charging":false,"chargingTime":0,"dischargingTime":4},"camera":{"active":true,"facingMode":"environment","streaming":true,"width":300,"height":150},"network":{"effectiveType":"4g","downlink":1.75,"rtt":200,"saveData":false},"device":{"userAgent":"Mozilla/5.0 (Linux; Android 10; K) AppleWebKit/537.36 (KHTML, like Gecko) Chrome/137.0.0.0 Mobile Sa","platform":"Linux armv81","language":"en-IN","onLine":true,"hardwareConcurrency":8},"motion":{"isMoving":false,"intensity":9.669987176581008,"type":"stationary"},"calculatedOrientation":{"roll":53.58488176645524,"pitch":49.290618716167195,"yaw":-1.5669866121527702},"serverLatency":0,"connectionId":7}}
{"timestamp":"2025-06-17T18:47:13.098Z","data":{"accelerometer":{"x":-0.10122671564563664,"y":0.014697642361618427,"z":-0.06915797616772787,"magnitude":0.12347345592882963},"gyroscope":{"x":-2.030044043439016,"y":-9.844893829888852,"z":0.406602677569446},"orientation":{"alpha":206.8,"beta":39.9,"gamma":-16.9},"timestamp":"2025-06-17T18:47:13.098Z","dataCount":33,"gps":{"latitude":13.082,"longitude":77.667,"altitude":810,"accuracy":27.288,"speed":0.122,"heading":316.463,"timestamp":1750186031496},"battery":{"level":0.41,"charging":false,"chargingTime":0,"dischargingTime":4},"camera":{"active":true,"facingMode":"environment","streaming":true,"width":300,"height":150},"network":{"effectiveType":"4g","downlink":1.75,"rtt":200,"saveData":false},"device":{"userAgent":"Mozilla/5.0 (Linux; Android 10; K) AppleWebKit/537.36 (KHTML, like Gecko) Chrome/137.0.0.0 Mobile Sa","platform":"Linux armv81","language":"en-IN","onLine":true,"hardwareConcurrency":8},"motion":{"isMoving":false,"intensity":9.686526544071171,"type":"stationary"},"calculatedOrientation":{"roll":168.00185426367386,"pitch":55.06735205870965,"yaw":0.406602677569446},"serverLatency":0,"connectionId":7}}
{"timestamp":"2025-06-17T18:47:13.302Z","data":{"accelerometer":{"x":0.05975465687087271,"y":-0.15706047152767633,"z":-0.09383159523354558,"magnitude":0.19246552677901488},"gyroscope":{"x":-0.8060088086878032,"y":10.11102123402223,"z":2.001320535513889},"orientation":{"alpha":207.7,"beta":40,"gamma":-15.8},"timestamp":"2025-06-17T18:47:13.302Z","dataCount":34,"gps":{"latitude":13.082,"longitude":77.667,"altitude":810,"accuracy":20.859,"speed":0.313,"heading":338.798,"timestamp":1750186032498},"battery":{"level":0.41,"charging":false,"chargingTime":0,"dischargingTime":4},"camera":{"active":true,"facingMode":"environment","streaming":true,"width":300,"height":150},"network":{"effectiveType":"4g","downlink":1.75,"rtt":200,"saveData":false},"device":{"userAgent":"Mozilla/5.0 (Linux; Android 10; K) AppleWebKit/537.36 (KHTML, like Gecko) Chrome/137.0.0.0 Mobile Sa","platform":"Linux armv81","language":"en-IN","onLine":true,"hardwareConcurrency":8},"motion":{"isMoving":false,"intensity":9.617534473220985,"type":"stationary"},"calculatedOrientation":{"roll":-120.85508137954257,"pitch":-18.08752106164268,"yaw":2.001320535513889},"serverLatency":0,"connectionId":7}}
{"timestamp":"2025-06-17T18:47:13.512Z","data":{"accelerometer":{"x":-0.1480490686258255,"y":0.12858790569446477,"z":0.3812336809532909,"magnitude":0.42871027011847823},"gyroscope":{"x":11.51879823826244,"y":37.46220424680445,"z":-1.4397358928972221},"orientation":{"alpha":207.1,"beta":41.4,"gamma":-9.4},"timestamp":"2025-06-17T18:47:13.512Z","dataCount":35,"gps":{"latitude":13.082,"longitude":77.667,"altitude":810,"accuracy":8.6,"speed":0.343,"heading":333.558,"timestamp":1750186032690},"battery":{"level":0.41,"charging":false,"chargingTime":0,"dischargingTime":4},"camera":{"active":true,"facingMode":"environment","streaming":true,"width":300,"height":150},"network":{"effectiveType":"4g","downlink":1.75,"rtt":200,"saveData":false},"device":{"userAgent":"Mozilla/5.0 (Linux; Android 10; K) AppleWebKit/537.36 (KHTML, like Gecko) Chrome/137.0.0.0 Mobile Sa","platform":"Linux armv81","language":"en-IN","onLine":true,"hardwareConcurrency":8},"motion":{"isMoving":false,"intensity":9.381289729881523,"type":"stationary"},"calculatedOrientation":{"roll":18.63895189532252,"pitch":20.202304778377567,"yaw":-1.4397358928972221},"serverLatency":0,"connectionId":7}}
{"timestamp":"2025-06-17T18:47:13.715Z","data":{"accelerometer":{"x":0.05039018627483491,"y":-0.21428241886110705,"z":0.3162467361906582,"magnitude":0.38531561616034105},"gyroscope":{"x":-2.6562403523475133,"y":11.892440849360888,"z":5.072052821420556},"orientation":{"alpha":208.4,"beta":41,"gamma":-7.4},"timestamp":"2025-06-17T18:47:13.715Z","dataCount":36,"gps":{"latitude":13.082,"longitude":77.667,"altitude":810,"accuracy":8.6,"speed":0.343,"heading":333.558,"timestamp":1750186032690},"battery":{"level":0.41,"charging":false,"chargingTime":0,"dischargingTime":4},"camera":{"active":true,"facingMode":"environment","streaming":true,"width":300,"height":150},"network":{"effectiveType":"4g","downlink":1.75,"rtt":200,"saveData":false},"device":{"userAgent":"Mozilla/5.0 (Linux; Android 10; K) AppleWebKit/537.36 (KHTML, like Gecko) Chrome/137.0.0.0 Mobile Sa","platform":"Linux armv81","language":"en-IN","onLine":true,"hardwareConcurrency":8},"motion":{"isMoving":false,"intensity":9.42468438383966,"type":"stationary"},"calculatedOrientation":{"roll":-34.120776005538026,"pitch":-7.514459363123489,"yaw":5.072052821420556},"serverLatency":0,"connectionId":7}}
{"timestamp":"2025-06-17T18:47:14.023Z","data":{"accelerometer":{"x":-0.06992196274503303,"y":-0.20285648377222143,"z":-0.016750652761868434,"magnitude":0.21522178851244597},"gyroscope":{"x":-4.051248070469503,"y":-12.341511830127821,"z":-3.78558943571589},"orientation":{"alpha":208.8,"beta":40.2,"gamma":-8.3},"timestamp":"2025-06-17T18:47:14.023Z","dataCount":37,"gps":{"latitude":13.082,"longitude":77.667,"altitude":810,"accuracy":8.6,"speed":0.343,"heading":333.558,"timestamp":1750186032690},"battery":{"level":0.41,"charging":false,"chargingTime":0,"dischargingTime":4},"camera":{"active":true,"facingMode":"environment","streaming":true,"width":300,"height":150},"network":{"effectiveType":"4g","downlink":1.75,"rtt":50,"saveData":false},"device":{"userAgent":"Mozilla/5.0 (Linux; Android 10; K) AppleWebKit/537.36 (KHTML, like Gecko) Chrome/137.0.0.0 Mobile Sa","platform":"Linux armv81","language":"en-IN","onLine":true,"hardwareConcurrency":8},"motion":{"isMoving":false,"intensity":9.594778211487554,"type":"stationary"},"calculatedOrientation":{"roll":-94.72042723581038,"pitch":18.958504304725945,"yaw":-3.78558943571589},"serverLatency":0,"connectionId":7}}
{"timestamp":"2025-06-17T18:47:14.023Z","data":{"accelerometer":{"x":-0.2539843925490066,"y":0.039428703245555696,"z":-0.0833501305523737,"magnitude":0.27020351322884706},"gyroscope":{"x":-5.130249614093901,"y":-29.908302366025563,"z":-3.8771178871431777},"orientation":{"alpha":207.6,"beta":39.6,"gamma":-11.8},"timestamp":"2025-06-17T18:47:14.023Z","dataCount":38,"gps":{"latitude":13.082,"longitude":77.667,"altitude":810,"accuracy":8.6,"speed":0.343,"heading":333.558,"timestamp":1750186032690},"battery":{"level":0.41,"charging":false,"chargingTime":0,"dischargingTime":4},"camera":{"active":true,"facingMode":"environment","streaming":true,"width":300,"height":150},"network":{"effectiveType":"4g","downlink":1.75,"rtt":50,"saveData":false},"device":{"userAgent":"Mozilla/5.0 (Linux; Android 10; K) AppleWebKit/537.36 (KHTML, like Gecko) Chrome/137.0.0.0 Mobile Sa","platform":"Linux armv81","language":"en-IN","onLine":true,"hardwareConcurrency":8},"motion":{"isMoving":false,"intensity":9.539796486771154,"type":"stationary"},"calculatedOrientation":{"roll":154.68355247222604,"pitch":70.04726222172464,"yaw":-3.8771178871431777},"serverLatency":0,"connectionId":7}}
{"timestamp":"2025-06-17T18:47:14.202Z","data":{"accelerometer":{"x":-0.13079687850980132,"y":-0.07211425935088887,"z":0.06332997388952527,"magnitude":0.16223124058726462},"gyroscope":{"x":-5.986049922818781,"y":-25.50166047320511,"z":-4.215423577428635},"orientation":{"alpha":206.6,"beta":39.1,"gamma":-16.2},"timestamp":"2025-06-17T18:47:14.202Z","dataCount":39,"gps":{"latitude":13.082,"longitude":77.667,"altitude":810,"accuracy":7.95,"speed":0.228,"heading":314.615,"timestamp":1750186033497},"battery":{"level":0.41,"charging":false,"chargingTime":0,"dischargingTime":4},"camera":{"active":true,"facingMode":"environment","streaming":true,"width":300,"height":150},"network":{"effectiveType":"4g","downlink":1.75,"rtt":50,"saveData":false},"device":{"userAgent":"Mozilla/5.0 (Linux; Android 10; K) AppleWebKit/537.36 (KHTML, like Gecko) Chrome/137.0.0.0 Mobile Sa","platform":"Linux armv81","language":"en-IN","onLine":true,"hardwareConcurrency":8},"motion":{"isMoving":false,"intensity":9.647768759412736,"type":"stationary"},"calculatedOrientation":{"roll":-48.710741902914265,"pitch":53.72991843155895,"yaw":-4.215423577428635},"serverLatency":0,"connectionId":7}}
{"timestamp":"2025-06-17T18:47:14.537Z","data":{"accelerometer":{"x":-0.3461593757019603,"y":-0.01442285187017777,"z":0.09266599477790506,"magnitude":0.35863814441665115},"gyroscope":{"x":9.762790015436245,"y":23.45966790535898,"z":-8.283084715485728},"orientation":{"alpha":204.3,"beta":42.2,"gamma":-11.5},"timestamp":"2025-06-17T18:47:14.537Z","dataCount":40,"gps":{"latitude":13.082,"longitude":77.667,"altitude":810,"accuracy":7.95,"speed":0.228,"heading":314.615,"timestamp":1750186033497},"battery":{"level":0.41,"charging":false,"chargingTime":0,"dischargingTime":4},"camera":{"active":true,"facingMode":"environment","streaming":true,"width":300,"height":150},"network":{"effectiveType":"4g","downlink":1.75,"rtt":50,"saveData":false},"device":{"userAgent":"Mozilla/5.0 (Linux; Android 10; K) AppleWebKit/537.36 (KHTML, like Gecko) Chrome/137.0.0.0 Mobile Sa","platform":"Linux armv81","language":"en-IN","onLine":true,"hardwareConcurrency":8},"motion":{"isMoving":false,"intensity":9.451361855583349,"type":"stationary"},"calculatedOrientation":{"roll":-8.846729531136587,"pitch":74.84127627294814,"yaw":-8.283084715485728},"serverLatency":0,"connectionId":7}}
{"timestamp":"2025-06-17T18:47:14.626Z","data":{"accelerometer":{"x":-0.14923187514039205,"y":-0.08288457037403554,"z":-0.061466801044419025,"magnitude":0.1814336578329396},"gyroscope":{"x":2.9125580030872484,"y":13.011933581071796,"z":-3.896616943097145},"orientation":{"alpha":203.5,"beta":44.5,"gamma":-5.6},"timestamp":"2025-06-17T18:47:14.626Z","dataCount":41,"gps":{"latitude":13.082,"longitude":77.667,"altitude":810,"accuracy":7.95,"speed":0.228,"heading":314.615,"timestamp":1750186033497},"battery":{"level":0.41,"charging":false,"chargingTime":0,"dischargingTime":4},"camera":{"active":true,"facingMode":"environment","streaming":true,"width":300,"height":150},"network":{"effectiveType":"4g","downlink":1.75,"rtt":50,"saveData":false},"device":{"userAgent":"Mozilla/5.0 (Linux; Android 10; K) AppleWebKit/537.36 (KHTML, like Gecko) Chrome/137.0.0.0 Mobile Sa","platform":"Linux armv81","language":"en-IN","onLine":true,"hardwareConcurrency":8},"motion":{"isMoving":false,"intensity":9.62856634216706,"type":"stationary"},"calculatedOrientation":{"roll":-126.56045479934349,"pitch":55.33733655088494,"yaw":-3.896616943097145},"serverLatency":0,"connectionId":7}}
{"timestamp":"2025-06-17T18:47:14.838Z","data":{"accelerometer":{"x":-0.02984637502807841,"y":-0.016576914074807103,"z":0.1477066397911162,"magnitude":0.1516009618074463},"gyroscope":{"x":-2.1374883993825513,"y":7.962386716214359,"z":-2.219323388619429},"orientation":{"alpha":203.4,"beta":44.3,"gamma":-4.9},"timestamp":"2025-06-17T18:47:14.838Z","dataCount":42,"gps":{"latitude":13.082,"longitude":77.667,"altitude":810,"accuracy":7.95,"speed":0.228,"heading":314.615,"timestamp":1750186033497},"battery":{"level":0.41,"charging":false,"chargingTime":0,"dischargingTime":4},"camera":{"active":true,"facingMode":"environment","streaming":true,"width":300,"height":150},"network":{"effectiveType":"4g","downlink":1.75,"rtt":50,"saveData":false},"device":{"userAgent":"Mozilla/5.0 (Linux; Android 10; K) AppleWebKit/537.36 (KHTML, like Gecko) Chrome/137.0.0.0 Mobile Sa","platform":"Linux armv81","language":"en-IN","onLine":true,"hardwareConcurrency":8},"motion":{"isMoving":false,"intensity":9.658399038192554,"type":"stationary"},"calculatedOrientation":{"roll":-6.403432331919436,"pitch":11.354251935875288,"yaw":-2.219323388619429},"serverLatency":0,"connectionId":7}}
{"timestamp":"2025-06-17T18:47:15.173Z","data":{"accelerometer":{"x":-0.08596927500561569,"y":0.07668461718503859,"z":0.02954132795822323,"magnitude":0.11892828433700033},"gyroscope":{"x":0.9325023201234899,"y":2.9524773432428715,"z":-1.7238646777238857},"orientation":{"alpha":202.3,"beta":43.5,"gamma":-3.1},"timestamp":"2025-06-17T18:47:15.173Z","dataCount":43,"gps":{"latitude":13.082,"longitude":77.667,"altitude":810,"accuracy":7.95,"speed":0.228,"heading":314.615,"timestamp":1750186033497},"battery":{"level":0.41,"charging":false,"chargingTime":0,"dischargingTime":4},"camera":{"active":true,"facingMode":"environment","streaming":true,"width":300,"height":150},"network":{"effectiveType":"4g","downlink":1.75,"rtt":50,"saveData":false},"device":{"userAgent":"Mozilla/5.0 (Linux; Android 10; K) AppleWebKit/537.36 (KHTML, like Gecko) Chrome/137.0.0.0 Mobile Sa","platform":"Linux armv81","language":"en-IN","onLine":true,"hardwareConcurrency":8},"motion":{"isMoving":false,"intensity":9.691071715663,"type":"stationary"},"calculatedOrientation":{"roll":68.9317449834825,"pitch":46.29165558209707,"yaw":-1.7238646777238857},"serverLatency":0,"connectionId":7}}
{"timestamp":"2025-06-17T18:47:15.204Z","data":{"accelerometer":{"x":-0.017193855001123137,"y":0.015336923437007717,"z":0.005908265591644646,"magnitude":0.023785656867400064},"gyroscope":{"x":2.5065004640246977,"y":2.830495468648574,"z":-1.144772935544777},"orientation":{"alpha":202.3,"beta":43.6,"gamma":-3.1},"timestamp":"2025-06-17T18:47:15.204Z","dataCount":44,"gps":{"latitude":13.082,"longitude":77.667,"altitude":810,"accuracy":7.46,"speed":0.228,"heading":328.279,"timestamp":1750186034538},"battery":{"level":0.41,"charging":false,"chargingTime":0,"dischargingTime":4},"camera":{"active":true,"facingMode":"environment","streaming":true,"width":300,"height":150},"network":{"effectiveType":"4g","downlink":1.75,"rtt":50,"saveData":false},"device":{"userAgent":"Mozilla/5.0 (Linux; Android 10; K) AppleWebKit/537.36 (KHTML, like Gecko) Chrome/137.0.0.0 Mobile Sa","platform":"Linux armv81","language":"en-IN","onLine":true,"hardwareConcurrency":8},"motion":{"isMoving":false,"intensity":9.7862143431326,"type":"stationary"},"calculatedOrientation":{"roll":68.93174498348249,"pitch":46.29165558209707,"yaw":-1.144772935544777},"serverLatency":0,"connectionId":7}}
{"timestamp":"2025-06-17T18:47:15.566Z","data":{"accelerometer":{"x":-0.003438771000224626,"y":0.003067384687401543,"z":0.08118165311832894,"magnitude":0.08131232869520573},"gyroscope":{"x":0.3413000928049392,"y":1.6860990937297147,"z":0.3310454128910447},"orientation":{"alpha":202.1,"beta":44,"gamma":-2.8},"timestamp":"2025-06-17T18:47:15.566Z","dataCount":45,"gps":{"latitude":13.082,"longitude":77.667,"altitude":810,"accuracy":7.46,"speed":0.228,"heading":328.279,"timestamp":1750186034538},"battery":{"level":0.41,"charging":false,"chargingTime":0,"dischargingTime":4},"camera":{"active":true,"facingMode":"environment","streaming":true,"width":300,"height":150},"network":{"effectiveType":"4g","downlink":1.75,"rtt":50,"saveData":false},"device":{"userAgent":"Mozilla/5.0 (Linux; Android 10; K) AppleWebKit/537.36 (KHTML, like Gecko) Chrome/137.0.0.0 Mobile Sa","platform":"Linux armv81","language":"en-IN","onLine":true,"hardwareConcurrency":8},"motion":{"isMoving":false,"intensity":9.728687671304796,"type":"stationary"},"calculatedOrientation":{"roll":2.163846461785712,"pitch":2.4238125587571884,"yaw":0.3310454128910447},"serverLatency":0,"connectionId":7}}
{"timestamp":"2025-06-17T18:47:15.602Z","data":{"accelerometer":{"x":-0.0006877542000449251,"y":-0.0793865230625197,"z":0.01623633062366578,"magnitude":0.08103278029240166},"gyroscope":{"x":-0.09173998143901213,"y":0.817219818745943,"z":-0.7337909174217911},"orientation":{"alpha":202,"beta":44.2,"gamma":-2.7},"timestamp":"2025-06-17T18:47:15.602Z","dataCount":46,"gps":{"latitude":13.082,"longitude":77.667,"altitude":810,"accuracy":7.46,"speed":0.228,"heading":328.279,"timestamp":1750186034538},"battery":{"level":0.41,"charging":false,"chargingTime":0,"dischargingTime":4},"camera":{"active":true,"facingMode":"environment","streaming":true,"width":300,"height":150},"network":{"effectiveType":"4g","downlink":1.75,"rtt":50,"saveData":false},"device":{"userAgent":"Mozilla/5.0 (Linux; Android 10; K) AppleWebKit/537.36 (KHTML, like Gecko) Chrome/137.0.0.0 Mobile Sa","platform":"Linux armv81","language":"en-IN","onLine":true,"hardwareConcurrency":8},"motion":{"isMoving":false,"intensity":9.728967219707599,"type":"stationary"},"calculatedOrientation":{"roll":-78.44113127435457,"pitch":0.48629561980381936,"yaw":-0.7337909174217911},"serverLatency":0,"connectionId":7}}
{"timestamp":"2025-06-17T18:47:15.862Z","data":{"accelerometer":{"x":-0.00013755084000898496,"y":-0.09587730461250395,"z":-0.07675273387526685,"magnitude":0.12281473290008814},"gyroscope":{"x":-0.2583479962878024,"y":-0.47655603625081144,"z":-1.1867581834843584},"orientation":{"alpha":201.7,"beta":44.3,"gamma":-2.5},"timestamp":"2025-06-17T18:47:15.862Z","dataCount":47,"gps":{"latitude":13.082,"longitude":77.667,"altitude":810,"accuracy":7.46,"speed":0.228,"heading":328.279,"timestamp":1750186034538},"battery":{"level":0.41,"charging":false,"chargingTime":0,"dischargingTime":4},"camera":{"active":true,"facingMode":"environment","streaming":true,"width":300,"height":150},"network":{"effectiveType":"4g","downlink":1.75,"rtt":50,"saveData":false},"device":{"userAgent":"Mozilla/5.0 (Linux; Android 10; K) AppleWebKit/537.36 (KHTML, like Gecko) Chrome/137.0.0.0 Mobile Sa","platform":"Linux armv81","language":"en-IN","onLine":true,"hardwareConcurrency":8},"motion":{"isMoving":false,"intensity":9.687185267099913,"type":"stationary"},"calculatedOrientation":{"roll":-128.67834717929097,"pitch":0.06417051165219949,"yaw":-1.1867581834843584},"serverLatency":0,"connectionId":7}}
{"timestamp":"2025-06-17T18:47:16.068Z","data":{"accelerometer":{"x":-0.0800275101680018,"y":-0.01917546092250079,"z":0.06464945322494664,"magnitude":0.10465014327541339},"gyroscope":{"x":0.34833040074243954,"y":1.0246887927498378,"z":-0.6373516366968717},"orientation":{"alpha":201.3,"beta":44.2,"gamma":-2},"timestamp":"2025-06-17T18:47:16.068Z","dataCount":48,"gps":{"latitude":13.082,"longitude":77.667,"altitude":810,"accuracy":7.46,"speed":0.228,"heading":328.279,"timestamp":1750186034538},"battery":{"level":0.41,"charging":false,"chargingTime":0,"dischargingTime":4},"camera":{"active":true,"facingMode":"environment","streaming":true,"width":300,"height":150},"network":{"effectiveType":"4g","downlink":1.75,"rtt":50,"saveData":false},"device":{"userAgent":"Mozilla/5.0 (Linux; Android 10; K) AppleWebKit/537.36 (KHTML, like Gecko) Chrome/137.0.0.0 Mobile Sa","platform":"Linux armv81","language":"en-IN","onLine":true,"hardwareConcurrency":8},"motion":{"isMoving":false,"intensity":9.705349856724586,"type":"stationary"},"calculatedOrientation":{"roll":-16.52070943113289,"pitch":49.88162329823401,"yaw":-0.6373516366968717},"serverLatency":0,"connectionId":7}}
{"timestamp":"2025-06-17T18:47:16.271Z","data":{"accelerometer":{"x":-0.016005502033600363,"y":-0.08383509218450017,"z":-0.06707010935501068,"magnitude":0.10854905962662374},"gyroscope":{"x":0.7896660801484878,"y":-0.6750622414500327,"z":0.8325296726606257},"orientation":{"alpha":201.3,"beta":44.3,"gamma":-1.9},"timestamp":"2025-06-17T18:47:16.271Z","dataCount":49,"gps":{"latitude":13.082,"longitude":77.667,"altitude":810,"accuracy":7.46,"speed":0.228,"heading":328.279,"timestamp":1750186034538},"battery":{"level":0.41,"charging":false,"chargingTime":0,"dischargingTime":4},"camera":{"active":true,"facingMode":"environment","streaming":true,"width":300,"height":150},"network":{"effectiveType":"4g","downlink":1.75,"rtt":50,"saveData":false},"device":{"userAgent":"Mozilla/5.0 (Linux; Android 10; K) AppleWebKit/537.36 (KHTML, like Gecko) Chrome/137.0.0.0 Mobile Sa","platform":"Linux armv81","language":"en-IN","onLine":true,"hardwareConcurrency":8},"motion":{"isMoving":false,"intensity":9.701450940373377,"type":"stationary"},"calculatedOrientation":{"roll":-128.66065653914842,"pitch":8.479148801781001,"yaw":0.8325296726606257},"serverLatency":0,"connectionId":7}}
{"timestamp":"2025-06-17T18:47:16.579Z","data":{"accelerometer":{"x":-0.0032011004067200727,"y":-0.09676701843690004,"z":-0.01341402187100213,"magnitude":0.09774476397095129},"gyroscope":{"x":0.47793321602969757,"y":-0.6950124482900065,"z":0.2465059345321251},"orientation":{"alpha":201.6,"beta":44.4,"gamma":-2.1},"timestamp":"2025-06-17T18:47:16.579Z","dataCount":50,"gps":{"latitude":13.082,"longitude":77.667,"altitude":810,"accuracy":7.083,"speed":0.325,"heading":205.081,"timestamp":1750186035539},"battery":{"level":0.41,"charging":false,"chargingTime":0,"dischargingTime":4},"camera":{"active":true,"facingMode":"environment","streaming":true,"width":300,"height":150},"network":{"effectiveType":"4g","downlink":1.75,"rtt":50,"saveData":false},"device":{"userAgent":"Mozilla/5.0 (Linux; Android 10; K) AppleWebKit/537.36 (KHTML, like Gecko) Chrome/137.0.0.0 Mobile Sa","platform":"Linux armv81","language":"en-IN","onLine":true,"hardwareConcurrency":8},"motion":{"isMoving":false,"intensity":9.71225523602905,"type":"stationary"},"calculatedOrientation":{"roll":-97.8921507904571,"pitch":1.8767485542791584,"yaw":0.2465059345321251},"serverLatency":0,"connectionId":7}}
{"timestamp":"2025-06-17T18:47:16.608Z","data":{"accelerometer":{"x":-0.08064022008134403,"y":-0.019353403687380005,"z":-0.08268280437420043,"magnitude":0.11710612908057627},"gyroscope":{"x":0.015586643205939443,"y":1.140997510341999,"z":-0.11069881309357499},"orientation":{"alpha":201.5,"beta":44.4,"gamma":-2.1},"timestamp":"2025-06-17T18:47:16.608Z","dataCount":51,"gps":{"latitude":13.082,"longitude":77.667,"altitude":810,"accuracy":7.083,"speed":0.325,"heading":205.081,"timestamp":1750186035539},"battery":{"level":0.41,"charging":false,"chargingTime":0,"dischargingTime":4},"camera":{"active":true,"facingMode":"environment","streaming":true,"width":300,"height":150},"network":{"effectiveType":"4g","downlink":1.75,"rtt":50,"saveData":false},"device":{"userAgent":"Mozilla/5.0 (Linux; Android 10; K) AppleWebKit/537.36 (KHTML, like Gecko) Chrome/137.0.0.0 Mobile Sa","platform":"Linux armv81","language":"en-IN","onLine":true,"hardwareConcurrency":8},"motion":{"isMoving":false,"intensity":9.692893870919423,"type":"stationary"},"calculatedOrientation":{"roll":-166.8260609987705,"pitch":43.5200226207531,"yaw":-0.11069881309357499},"serverLatency":0,"connectionId":7}}
{"timestamp":"2025-06-17T18:47:16.887Z","data":{"accelerometer":{"x":-0.09612804401626882,"y":-0.003870680737476,"z":-0.01653656087484008,"magnitude":0.09761680624427575},"gyroscope":{"x":0.40311732864118793,"y":-0.8118004979316005,"z":-0.582139762618715},"orientation":{"alpha":201.3,"beta":44.3,"gamma":-1.9},"timestamp":"2025-06-17T18:47:16.887Z","dataCount":52,"gps":{"latitude":13.082,"longitude":77.667,"altitude":810,"accuracy":7.083,"speed":0.325,"heading":205.081,"timestamp":1750186035539},"battery":{"level":0.41,"charging":false,"chargingTime":0,"dischargingTime":4},"camera":{"active":true,"facingMode":"environment","streaming":true,"width":300,"height":150},"network":{"effectiveType":"4g","downlink":1.75,"rtt":50,"saveData":false},"device":{"userAgent":"Mozilla/5.0 (Linux; Android 10; K) AppleWebKit/537.36 (KHTML, like Gecko) Chrome/137.0.0.0 Mobile Sa","platform":"Linux armv81","language":"en-IN","onLine":true,"hardwareConcurrency":8},"motion":{"isMoving":false,"intensity":9.712383193755725,"type":"stationary"},"calculatedOrientation":{"roll":-166.8260609987705,"pitch":79.98060476134083,"yaw":-0.582139762618715},"serverLatency":0,"connectionId":7}}
