{"timestamp":"2025-06-15T05:51:04.859Z","data":{"accelerometer":{"x":0,"y":-0.1,"z":-0.2,"magnitude":0.223606797749979},"gyroscope":{"x":-21.3,"y":-31.7,"z":3.9},"orientation":{"alpha":339.4,"beta":56.3,"gamma":-5.6,"absolute":false},"timestamp":"2025-06-15T05:51:04.858Z","dataCount":1,"battery":{"level":0.09,"charging":false,"chargingTime":0,"dischargingTime":0},"camera":{"active":true,"facingMode":"user","streaming":true,"width":300,"height":150},"network":{"effectiveType":"4g","downlink":10,"rtt":100,"saveData":false},"device":{"userAgent":"Mozilla/5.0 (Linux; Android 10; K) AppleWebKit/537.36 (KHTML, like Gecko) Chrome/137.0.0.0 Mobile Sa","platform":"Linux armv81","language":"en-IN","onLine":true,"hardwareConcurrency":8},"motion":{"isMoving":false,"intensity":9.586393202250022,"type":"stationary"},"calculatedOrientation":{"roll":-153.43494882292202,"pitch":0,"yaw":3.9},"serverLatency":0,"connectionId":3}}
{"timestamp":"2025-06-15T05:51:05.276Z","data":{"accelerometer":{"x":0,"y":-0.18000000000000002,"z":0.35999999999999993,"magnitude":0.4024922359499621},"gyroscope":{"x":0.860000000000003,"y":25.34,"z":2.38},"orientation":{"alpha":334.5,"beta":24.2,"gamma":-16.9,"absolute":false},"timestamp":"2025-06-15T05:51:05.276Z","dataCount":2,"battery":{"level":0.09,"charging":false,"chargingTime":0,"dischargingTime":0},"camera":{"active":true,"facingMode":"user","streaming":true,"width":300,"height":150},"network":{"effectiveType":"4g","downlink":10,"rtt":100,"saveData":false},"device":{"userAgent":"Mozilla/5.0 (Linux; Android 10; K) AppleWebKit/537.36 (KHTML, like Gecko) Chrome/137.0.0.0 Mobile Sa","platform":"Linux armv81","language":"en-IN","onLine":true,"hardwareConcurrency":8},"motion":{"isMoving":false,"intensity":9.407507764050038,"type":"stationary"},"calculatedOrientation":{"roll":-26.565051177077997,"pitch":0,"yaw":2.38},"serverLatency":0,"connectionId":3}}
{"timestamp":"2025-06-15T05:51:05.776Z","data":{"accelerometer":{"x":0,"y":-0.116,"z":-0.08800000000000002,"magnitude":0.14560219778561037},"gyroscope":{"x":8.812000000000001,"y":8.988,"z":-0.0040000000000000036},"orientation":{"alpha":336.9,"beta":34.8,"gamma":-8.1,"absolute":false},"timestamp":"2025-06-15T05:51:05.776Z","dataCount":3,"battery":{"level":0.09,"charging":false,"chargingTime":0,"dischargingTime":0},"camera":{"active":true,"facingMode":"user","streaming":true,"width":300,"height":150},"network":{"effectiveType":"4g","downlink":10,"rtt":100,"saveData":false},"device":{"userAgent":"Mozilla/5.0 (Linux; Android 10; K) AppleWebKit/537.36 (KHTML, like Gecko) Chrome/137.0.0.0 Mobile Sa","platform":"Linux armv81","language":"en-IN","onLine":true,"hardwareConcurrency":8},"motion":{"isMoving":false,"intensity":9.66439780221439,"type":"stationary"},"calculatedOrientation":{"roll":-127.18470645323312,"pitch":0,"yaw":-0.0040000000000000036},"serverLatency":0,"connectionId":3}}
{"timestamp":"2025-06-15T05:51:06.271Z","data":{"accelerometer":{"x":0,"y":-0.18320000000000003,"z":-0.17760000000000004,"magnitude":0.25515485494107304},"gyroscope":{"x":4.2424,"y":6.1975999999999996,"z":-2.4008000000000003},"orientation":{"alpha":337.2,"beta":42.4,"gamma":-5,"absolute":false},"timestamp":"2025-06-15T05:51:06.271Z","dataCount":4,"battery":{"level":0.09,"charging":false,"chargingTime":0,"dischargingTime":0},"camera":{"active":true,"facingMode":"user","streaming":true,"width":240,"height":240},"network":{"effectiveType":"4g","downlink":10,"rtt":100,"saveData":false},"device":{"userAgent":"Mozilla/5.0 (Linux; Android 10; K) AppleWebKit/537.36 (KHTML, like Gecko) Chrome/137.0.0.0 Mobile Sa","platform":"Linux armv81","language":"en-IN","onLine":true,"hardwareConcurrency":8},"motion":{"isMoving":false,"intensity":9.554845145058927,"type":"stationary"},"calculatedOrientation":{"roll":-134.11077992277433,"pitch":0,"yaw":-2.4008000000000003},"serverLatency":0,"connectionId":3}}
{"timestamp":"2025-06-15T05:51:06.800Z","data":{"accelerometer":{"x":0.16000000000000003,"y":-0.19664,"z":-0.11552000000000001,"magnitude":0.278589590616735},"gyroscope":{"x":-7.391520000000002,"y":-0.6804800000000011,"z":-2.48016},"orientation":{"alpha":334.3,"beta":45.6,"gamma":0.4,"absolute":false},"timestamp":"2025-06-15T05:51:06.800Z","dataCount":5,"battery":{"level":0.09,"charging":false,"chargingTime":0,"dischargingTime":0},"camera":{"active":true,"facingMode":"user","streaming":true,"width":240,"height":240},"network":{"effectiveType":"4g","downlink":10,"rtt":100,"saveData":false},"device":{"userAgent":"Mozilla/5.0 (Linux; Android 10; K) AppleWebKit/537.36 (KHTML, like Gecko) Chrome/137.0.0.0 Mobile Sa","platform":"Linux armv81","language":"en-IN","onLine":true,"hardwareConcurrency":8},"motion":{"isMoving":false,"intensity":9.531410409383266,"type":"stationary"},"calculatedOrientation":{"roll":-120.43293607752808,"pitch":-35.05213238082388,"yaw":-2.48016},"serverLatency":0,"connectionId":3}}
{"timestamp":"2025-06-15T05:51:07.271Z","data":{"accelerometer":{"x":0.032,"y":-0.039328,"z":-0.42310400000000004,"magnitude":0.42613106716126675},"gyroscope":{"x":7.401695999999999,"y":5.703904,"z":-1.776032},"orientation":{"alpha":334.6,"beta":45.2,"gamma":-2.4,"absolute":false},"timestamp":"2025-06-15T05:51:07.271Z","dataCount":6,"battery":{"level":0.09,"charging":false,"chargingTime":0,"dischargingTime":0},"camera":{"active":true,"facingMode":"user","streaming":true,"width":240,"height":240},"network":{"effectiveType":"4g","downlink":10,"rtt":100,"saveData":false},"device":{"userAgent":"Mozilla/5.0 (Linux; Android 10; K) AppleWebKit/537.36 (KHTML, like Gecko) Chrome/137.0.0.0 Mobile Sa","platform":"Linux armv81","language":"en-IN","onLine":true,"hardwareConcurrency":8},"motion":{"isMoving":false,"intensity":9.383868932838734,"type":"stationary"},"calculatedOrientation":{"roll":-174.68955072520615,"pitch":-4.306638662043162,"yaw":-1.776032},"serverLatency":0,"connectionId":3}}
{"timestamp":"2025-06-15T05:51:07.769Z","data":{"accelerometer":{"x":0.0864,"y":-0.08786560000000002,"z":-0.0846208,"magnitude":0.14948579683702395},"gyroscope":{"x":1.7203391999999997,"y":0.9807807999999998,"z":-1.2352064},"orientation":{"alpha":334.3,"beta":46.1,"gamma":-0.5,"absolute":false},"timestamp":"2025-06-15T05:51:07.769Z","dataCount":7,"battery":{"level":0.09,"charging":false,"chargingTime":0,"dischargingTime":0},"camera":{"active":true,"facingMode":"user","streaming":true,"width":240,"height":240},"network":{"effectiveType":"4g","downlink":10,"rtt":100,"saveData":false},"device":{"userAgent":"Mozilla/5.0 (Linux; Android 10; K) AppleWebKit/537.36 (KHTML, like Gecko) Chrome/137.0.0.0 Mobile Sa","platform":"Linux armv81","language":"en-IN","onLine":true,"hardwareConcurrency":8},"motion":{"isMoving":false,"intensity":9.660514203162977,"type":"stationary"},"calculatedOrientation":{"roll":-133.9222836167393,"pitch":-35.308685197149735,"yaw":-1.2352064},"serverLatency":0,"connectionId":3}}
{"timestamp":"2025-06-15T05:51:08.271Z","data":{"accelerometer":{"x":-0.22272,"y":0.06242688000000002,"z":0.22307584000000003,"magnitude":0.32134738856608125},"gyroscope":{"x":-2.6159321600000007,"y":-3.16384384,"z":5.352958719999999},"orientation":{"alpha":334.5,"beta":45.2,"gamma":-0.6,"absolute":false},"timestamp":"2025-06-15T05:51:08.271Z","dataCount":8,"battery":{"level":0.09,"charging":false,"chargingTime":0,"dischargingTime":0},"camera":{"active":true,"facingMode":"user","streaming":true,"width":240,"height":240},"network":{"effectiveType":"4g","downlink":10,"rtt":100,"saveData":false},"device":{"userAgent":"Mozilla/5.0 (Linux; Android 10; K) AppleWebKit/537.36 (KHTML, like Gecko) Chrome/137.0.0.0 Mobile Sa","platform":"Linux armv81","language":"en-IN","onLine":true,"hardwareConcurrency":8},"motion":{"isMoving":false,"intensity":9.488652611433919,"type":"stationary"},"calculatedOrientation":{"roll":15.634063692548757,"pitch":43.87455131974244,"yaw":5.352958719999999},"serverLatency":0,"connectionId":3}}
{"timestamp":"2025-06-15T05:51:08.952Z","data":{"accelerometer":{"x":-0.044544,"y":0.012485376,"z":0.124615168,"magnitude":0.13292476310127319},"gyroscope":{"x":-3.003186432,"y":-1.912768768,"z":0.35059174399999904},"orientation":{"alpha":335.6,"beta":44.2,"gamma":-1.7,"absolute":false},"timestamp":"2025-06-15T05:51:08.952Z","dataCount":9,"battery":{"level":0.09,"charging":false,"chargingTime":0,"dischargingTime":0},"camera":{"active":true,"facingMode":"user","streaming":true,"width":240,"height":240},"network":{"effectiveType":"4g","downlink":10,"rtt":100,"saveData":false},"device":{"userAgent":"Mozilla/5.0 (Linux; Android 10; K) AppleWebKit/537.36 (KHTML, like Gecko) Chrome/137.0.0.0 Mobile Sa","platform":"Linux armv81","language":"en-IN","onLine":true,"hardwareConcurrency":8},"motion":{"isMoving":false,"intensity":9.677075236898727,"type":"stationary"},"calculatedOrientation":{"roll":5.721454342003891,"pitch":19.579036184363083,"yaw":0.35059174399999904},"serverLatency":0,"connectionId":3}}
{"timestamp":"2025-06-15T05:51:09.275Z","data":{"accelerometer":{"x":-0.08890880000000001,"y":0.002497075199999999,"z":0.1049230336,"magnitude":0.13754945685760153},"gyroscope":{"x":-5.1606372864,"y":5.9374462463999995,"z":-1.2898816512000004},"orientation":{"alpha":335.4,"beta":49.5,"gamma":0,"absolute":false},"timestamp":"2025-06-15T05:51:09.275Z","dataCount":10,"gps":{"latitude":13.082,"longitude":77.667,"altitude":810.3,"accuracy":100,"speed":0,"heading":0,"timestamp":1749966668558},"battery":{"level":0.09,"charging":false,"chargingTime":0,"dischargingTime":0},"camera":{"active":true,"facingMode":"user","streaming":true,"width":240,"height":240},"network":{"effectiveType":"4g","downlink":10,"rtt":100,"saveData":false},"device":{"userAgent":"Mozilla/5.0 (Linux; Android 10; K) AppleWebKit/537.36 (KHTML, like Gecko) Chrome/137.0.0.0 Mobile Sa","platform":"Linux armv81","language":"en-IN","onLine":true,"hardwareConcurrency":8},"motion":{"isMoving":false,"intensity":9.672450543142398,"type":"stationary"},"calculatedOrientation":{"roll":1.3633314105599796,"pitch":40.26899399757339,"yaw":-1.2898816512000004},"serverLatency":0,"connectionId":3}}
{"timestamp":"2025-06-15T05:51:09.979Z","data":{"accelerometer":{"x":0.06221824000000001,"y":0.0004994150399999999,"z":0.020984606719999993,"magnitude":0.06566363166375165},"gyroscope":{"x":1.4478725427199999,"y":-2.6525107507200003,"z":-1.05797633024},"orientation":{"alpha":334.8,"beta":51.8,"gamma":1.3,"absolute":false},"timestamp":"2025-06-15T05:51:09.979Z","dataCount":11,"gps":{"latitude":13.082,"longitude":77.667,"altitude":810.3,"accuracy":100,"speed":0,"heading":0,"timestamp":1749966668558},"battery":{"level":0.09,"charging":false,"chargingTime":0,"dischargingTime":0},"camera":{"active":true,"facingMode":"user","streaming":true,"width":240,"height":240},"network":{"effectiveType":"4g","downlink":10,"rtt":100,"saveData":false},"device":{"userAgent":"Mozilla/5.0 (Linux; Android 10; K) AppleWebKit/537.36 (KHTML, like Gecko) Chrome/137.0.0.0 Mobile Sa","platform":"Linux armv81","language":"en-IN","onLine":true,"hardwareConcurrency":8},"motion":{"isMoving":false,"intensity":9.74433636833625,"type":"stationary"},"calculatedOrientation":{"roll":1.3633314105599803,"pitch":-71.35716394703387,"yaw":-1.05797633024},"serverLatency":0,"connectionId":3}}
{"timestamp":"2025-06-15T05:51:10.282Z","data":{"accelerometer":{"x":-0.06755635200000001,"y":-0.079900116992,"z":-0.15580307865600002,"magnitude":0.18767655343588052},"gyroscope":{"x":2.369574508544,"y":6.989497849856,"z":0.7484047339520001},"orientation":{"alpha":334,"beta":46.8,"gamma":-16.4,"absolute":false},"timestamp":"2025-06-15T05:51:10.282Z","dataCount":12,"gps":{"latitude":13.082,"longitude":77.667,"altitude":810.3,"accuracy":100,"speed":0,"heading":0,"timestamp":1749966668558},"battery":{"level":0.09,"charging":false,"chargingTime":0,"dischargingTime":0},"camera":{"active":true,"facingMode":"user","streaming":true,"width":240,"height":240},"network":{"effectiveType":"4g","downlink":10,"rtt":100,"saveData":false},"device":{"userAgent":"Mozilla/5.0 (Linux; Android 10; K) AppleWebKit/537.36 (KHTML, like Gecko) Chrome/137.0.0.0 Mobile Sa","platform":"Linux armv81","language":"en-IN","onLine":true,"hardwareConcurrency":8},"motion":{"isMoving":false,"intensity":9.62232344656412,"type":"stationary"},"calculatedOrientation":{"roll":-152.84999734608823,"pitch":21.09783761836198,"yaw":0.7484047339520001},"serverLatency":0,"connectionId":3}}
{"timestamp":"2025-06-15T05:51:10.794Z","data":{"accelerometer":{"x":-0.013511270399999997,"y":-0.015980023398400003,"z":0.2088393842688,"magnitude":0.20988521624308568},"gyroscope":{"x":-4.8060850982912005,"y":1.3178995699711997,"z":-0.010319053209600026},"orientation":{"alpha":333.5,"beta":43.3,"gamma":-7.2,"absolute":false},"timestamp":"2025-06-15T05:51:10.794Z","dataCount":13,"gps":{"latitude":13.082,"longitude":77.667,"altitude":810.3,"accuracy":100,"speed":0,"heading":0,"timestamp":1749966668558},"battery":{"level":0.09,"charging":false,"chargingTime":0,"dischargingTime":0},"camera":{"active":true,"facingMode":"user","streaming":true,"width":240,"height":240},"network":{"effectiveType":"4g","downlink":10,"rtt":100,"saveData":false},"device":{"userAgent":"Mozilla/5.0 (Linux; Android 10; K) AppleWebKit/537.36 (KHTML, like Gecko) Chrome/137.0.0.0 Mobile Sa","platform":"Linux armv81","language":"en-IN","onLine":true,"hardwareConcurrency":8},"motion":{"isMoving":false,"intensity":9.600114783756915,"type":"stationary"},"calculatedOrientation":{"roll":-4.375645985879042,"pitch":3.6909433929801803,"yaw":-0.010319053209600026},"serverLatency":0,"connectionId":3}}
{"timestamp":"2025-06-15T05:51:11.272Z","data":{"accelerometer":{"x":-0.002702254079999999,"y":-0.0031960046796800003,"z":0.04176787685375999,"magnitude":0.041977043248617125},"gyroscope":{"x":0.7987829803417608,"y":-0.37642008600576005,"z":0.47793618935808},"orientation":{"alpha":333.9,"beta":42.8,"gamma":-7,"absolute":false},"timestamp":"2025-06-15T05:51:11.271Z","dataCount":14,"gps":{"latitude":13.082,"longitude":77.667,"altitude":810.3,"accuracy":100,"speed":0,"heading":0,"timestamp":1749966668558},"battery":{"level":0.09,"charging":false,"chargingTime":0,"dischargingTime":0},"camera":{"active":true,"facingMode":"user","streaming":true,"width":240,"height":240},"network":{"effectiveType":"4g","downlink":10,"rtt":100,"saveData":false},"device":{"userAgent":"Mozilla/5.0 (Linux; Android 10; K) AppleWebKit/537.36 (KHTML, like Gecko) Chrome/137.0.0.0 Mobile Sa","platform":"Linux armv81","language":"en-IN","onLine":true,"hardwareConcurrency":8},"motion":{"isMoving":false,"intensity":9.768022956751384,"type":"stationary"},"calculatedOrientation":{"roll":-4.375645985879042,"pitch":3.6909433929801803,"yaw":0.47793618935808},"serverLatency":0,"connectionId":3}}
{"timestamp":"2025-06-15T05:51:11.818Z","data":{"accelerometer":{"x":-0.0005404508159999998,"y":-0.0006392009359360001,"z":0.088353575370752,"magnitude":0.08835754040101032},"gyroscope":{"x":4.159756596068352,"y":3.204715982798848,"z":-0.5444127621283841},"orientation":{"alpha":333.9,"beta":43.9,"gamma":-5.9,"absolute":false},"timestamp":"2025-06-15T05:51:11.818Z","dataCount":15,"gps":{"latitude":13.082,"longitude":77.667,"altitude":810.3,"accuracy":100,"speed":0,"heading":0,"timestamp":1749966668558},"battery":{"level":0.09,"charging":false,"chargingTime":0,"dischargingTime":0},"camera":{"active":true,"facingMode":"user","streaming":true,"width":240,"height":240},"network":{"effectiveType":"4g","downlink":10,"rtt":100,"saveData":false},"device":{"userAgent":"Mozilla/5.0 (Linux; Android 10; K) AppleWebKit/537.36 (KHTML, like Gecko) Chrome/137.0.0.0 Mobile Sa","platform":"Linux armv81","language":"en-IN","onLine":true,"hardwareConcurrency":8},"motion":{"isMoving":false,"intensity":9.721642459598991,"type":"stationary"},"calculatedOrientation":{"roll":-0.41450362148456255,"pitch":0.35045955037629106,"yaw":-0.5444127621283841},"serverLatency":0,"connectionId":3}}
{"timestamp":"2025-06-15T05:51:12.276Z","data":{"accelerometer":{"x":-0.08010809016320002,"y":-0.00012784018718720004,"z":0.2576707150741504,"magnitude":0.26983609814020965},"gyroscope":{"x":-1.2480486807863294,"y":4.640943196559769,"z":-0.5088825524256768},"orientation":{"alpha":333.3,"beta":44.4,"gamma":-3.9,"absolute":false},"timestamp":"2025-06-15T05:51:12.276Z","dataCount":16,"gps":{"latitude":13.082,"longitude":77.667,"altitude":810.3,"accuracy":100,"speed":0,"heading":0,"timestamp":1749966668558},"battery":{"level":0.09,"charging":false,"chargingTime":0,"dischargingTime":0},"camera":{"active":true,"facingMode":"user","streaming":true,"width":240,"height":240},"network":{"effectiveType":"4g","downlink":10,"rtt":100,"saveData":false},"device":{"userAgent":"Mozilla/5.0 (Linux; Android 10; K) AppleWebKit/537.36 (KHTML, like Gecko) Chrome/137.0.0.0 Mobile Sa","platform":"Linux armv81","language":"en-IN","onLine":true,"hardwareConcurrency":8},"motion":{"isMoving":false,"intensity":9.54016390185979,"type":"stationary"},"calculatedOrientation":{"roll":-0.0284266008843211,"pitch":17.270115547805545,"yaw":-0.5088825524256768},"serverLatency":0,"connectionId":3}}
{"timestamp":"2025-06-15T05:51:12.842Z","data":{"accelerometer":{"x":0.30397838196736005,"y":-0.08002556803743745,"z":-0.18846585698517,"magnitude":0.3665055627031646},"gyroscope":{"x":-10.489609736157266,"y":17.328188639311954,"z":-1.6217765104851354},"orientation":{"alpha":335.3,"beta":38.9,"gamma":-3.3,"absolute":false},"timestamp":"2025-06-15T05:51:12.842Z","dataCount":17,"gps":{"latitude":13.082,"longitude":77.667,"altitude":810.3,"accuracy":100,"speed":0,"heading":0,"timestamp":1749966668558},"battery":{"level":0.09,"charging":false,"chargingTime":0,"dischargingTime":0},"camera":{"active":true,"facingMode":"user","streaming":true,"width":240,"height":240},"network":{"effectiveType":"4g","downlink":10,"rtt":100,"saveData":false},"device":{"userAgent":"Mozilla/5.0 (Linux; Android 10; K) AppleWebKit/537.36 (KHTML, like Gecko) Chrome/137.0.0.0 Mobile Sa","platform":"Linux armv81","language":"en-IN","onLine":true,"hardwareConcurrency":8},"motion":{"isMoving":false,"intensity":9.443494437296836,"type":"stationary"},"calculatedOrientation":{"roll":-156.9931590567319,"pitch":-56.036780081840384,"yaw":-1.6217765104851354},"serverLatency":0,"connectionId":3}}
{"timestamp":"2025-06-15T05:51:13.290Z","data":{"accelerometer":{"x":-0.09920432360652798,"y":-0.3360051136074875,"z":0.202306828602966,"magnitude":0.4045602391387458},"gyroscope":{"x":-28.097921947231455,"y":-9.894362272137606,"z":-5.444355302097027},"orientation":{"alpha":335.4,"beta":30,"gamma":-8.3,"absolute":false},"timestamp":"2025-06-15T05:51:13.290Z","dataCount":18,"gps":{"latitude":13.082,"longitude":77.667,"altitude":810.3,"accuracy":100,"speed":0,"heading":0,"timestamp":1749966668558},"battery":{"level":0.09,"charging":false,"chargingTime":0,"dischargingTime":0},"camera":{"active":true,"facingMode":"user","streaming":true,"width":240,"height":240},"network":{"effectiveType":"4g","downlink":10,"rtt":100,"saveData":false},"device":{"userAgent":"Mozilla/5.0 (Linux; Android 10; K) AppleWebKit/537.36 (KHTML, like Gecko) Chrome/137.0.0.0 Mobile Sa","platform":"Linux armv81","language":"en-IN","onLine":true,"hardwareConcurrency":8},"motion":{"isMoving":false,"intensity":9.405439760861254,"type":"stationary"},"calculatedOrientation":{"roll":-58.94808557057524,"pitch":14.194552265627388,"yaw":-5.444355302097027},"serverLatency":0,"connectionId":3}}
{"timestamp":"2025-06-15T05:51:13.866Z","data":{"accelerometer":{"x":-0.0998408647213056,"y":0.17279897727850257,"z":-1.5595386342794066,"magnitude":1.5722558432478067},"gyroscope":{"x":1.0204156105537088,"y":23.86112754557248,"z":1.551128939580595},"orientation":{"alpha":333.9,"beta":26.8,"gamma":-9.1,"absolute":false},"timestamp":"2025-06-15T05:51:13.866Z","dataCount":19,"gps":{"latitude":13.082,"longitude":77.667,"altitude":810.3,"accuracy":100,"speed":0,"heading":0,"timestamp":1749966668558},"battery":{"level":0.09,"charging":false,"chargingTime":0,"dischargingTime":0},"camera":{"active":true,"facingMode":"user","streaming":true,"width":240,"height":240},"network":{"effectiveType":"4g","downlink":10,"rtt":100,"saveData":false},"device":{"userAgent":"Mozilla/5.0 (Linux; Android 10; K) AppleWebKit/537.36 (KHTML, like Gecko) Chrome/137.0.0.0 Mobile Sa","platform":"Linux armv81","language":"en-IN","onLine":true,"hardwareConcurrency":8},"motion":{"isMoving":true,"intensity":8.237744156752195,"type":"walking"},"calculatedOrientation":{"roll":173.67734073339113,"pitch":3.640827145610078,"yaw":1.551128939580595},"serverLatency":0,"connectionId":3}}
{"timestamp":"2025-06-15T05:51:14.271Z","data":{"accelerometer":{"x":-1.6999681729442613,"y":0.11455979545570052,"z":-2.2319077268558813,"magnitude":2.8079223345664834},"gyroscope":{"x":17.884083122110745,"y":30.372225509114497,"z":58.07022578791612},"orientation":{"alpha":341.3,"beta":21.6,"gamma":-5.5,"absolute":false},"timestamp":"2025-06-15T05:51:14.271Z","dataCount":20,"gps":{"latitude":13.082,"longitude":77.667,"altitude":810.3,"accuracy":100,"speed":0,"heading":0,"timestamp":1749966668558},"battery":{"level":0.09,"charging":false,"chargingTime":0,"dischargingTime":0},"camera":{"active":true,"facingMode":"user","streaming":true,"width":240,"height":240},"network":{"effectiveType":"4g","downlink":10,"rtt":100,"saveData":false},"device":{"userAgent":"Mozilla/5.0 (Linux; Android 10; K) AppleWebKit/537.36 (KHTML, like Gecko) Chrome/137.0.0.0 Mobile Sa","platform":"Linux armv81","language":"en-IN","onLine":true,"hardwareConcurrency":8},"motion":{"isMoving":true,"intensity":7.002077665433517,"type":"running"},"calculatedOrientation":{"roll":177.0616896431774,"pitch":37.25896398880773,"yaw":58.07022578791612},"serverLatency":0,"connectionId":3}}
{"timestamp":"2025-06-15T05:51:14.791Z","data":{"accelerometer":{"x":-1.5399936345888523,"y":-1.17708804090886,"z":14.193618454628824,"magnitude":14.32535938419015},"gyroscope":{"x":-36.903183375577854,"y":77.35444510182289,"z":2.7340451575832176},"orientation":{"alpha":353.6,"beta":-5.7,"gamma":20.8,"absolute":false},"timestamp":"2025-06-15T05:51:14.791Z","dataCount":21,"gps":{"latitude":13.082,"longitude":77.667,"altitude":810.3,"accuracy":100,"speed":0,"heading":0,"timestamp":1749966668558},"battery":{"level":0.09,"charging":false,"chargingTime":0,"dischargingTime":0},"camera":{"active":true,"facingMode":"user","streaming":true,"width":240,"height":240},"network":{"effectiveType":"4g","downlink":10,"rtt":100,"saveData":false},"device":{"userAgent":"Mozilla/5.0 (Linux; Android 10; K) AppleWebKit/537.36 (KHTML, like Gecko) Chrome/137.0.0.0 Mobile Sa","platform":"Linux armv81","language":"en-IN","onLine":true,"hardwareConcurrency":8},"motion":{"isMoving":true,"intensity":4.51535938419015,"type":"vigorous"},"calculatedOrientation":{"roll":-4.740736155584118,"pitch":6.17129188254719,"yaw":2.7340451575832176},"serverLatency":0,"connectionId":3}}
{"timestamp":"2025-06-15T05:51:15.273Z","data":{"accelerometer":{"x":0.3320012730822297,"y":-1.8354176081817721,"z":3.0787236909257647,"magnitude":3.5996558456079497},"gyroscope":{"x":-4.420636675115567,"y":-17.249110979635418,"z":-1.3731909684833568},"orientation":{"alpha":347.6,"beta":-1,"gamma":5.3,"absolute":false},"timestamp":"2025-06-15T05:51:15.273Z","dataCount":22,"gps":{"latitude":13.082,"longitude":77.667,"altitude":810.3,"accuracy":100,"speed":0,"heading":0,"timestamp":1749966668558},"battery":{"level":0.09,"charging":false,"chargingTime":0,"dischargingTime":0},"camera":{"active":true,"facingMode":"user","streaming":true,"width":240,"height":240},"network":{"effectiveType":"4g","downlink":10,"rtt":100,"saveData":false},"device":{"userAgent":"Mozilla/5.0 (Linux; Android 10; K) AppleWebKit/537.36 (KHTML, like Gecko) Chrome/137.0.0.0 Mobile Sa","platform":"Linux armv81","language":"en-IN","onLine":true,"hardwareConcurrency":8},"motion":{"isMoving":true,"intensity":6.21034415439205,"type":"running"},"calculatedOrientation":{"roll":-30.8017842737814,"pitch":-5.291990556506807,"yaw":-1.3731909684833568},"serverLatency":0,"connectionId":3}}
{"timestamp":"2025-06-15T05:51:15.919Z","data":{"accelerometer":{"x":0.06640025461644594,"y":-0.3670835216363544,"z":0.5357447381851528,"magnitude":0.6528259570231216},"gyroscope":{"x":-0.8841273350231131,"y":-3.3698221959270818,"z":-0.2746381936966713},"orientation":{"alpha":347.4,"beta":-0.1,"gamma":-3.5,"absolute":false},"timestamp":"2025-06-15T05:51:15.919Z","dataCount":23,"gps":{"latitude":13.082,"longitude":77.667,"altitude":810.3,"accuracy":100,"speed":0,"heading":0,"timestamp":1749966668558},"battery":{"level":0.09,"charging":false,"chargingTime":0,"dischargingTime":0},"camera":{"active":true,"facingMode":"user","streaming":true,"width":240,"height":240},"network":{"effectiveType":"4g","downlink":10,"rtt":100,"saveData":false},"device":{"userAgent":"Mozilla/5.0 (Linux; Android 10; K) AppleWebKit/537.36 (KHTML, like Gecko) Chrome/137.0.0.0 Mobile Sa","platform":"Linux armv81","language":"en-IN","onLine":true,"hardwareConcurrency":8},"motion":{"isMoving":false,"intensity":9.157174042976878,"type":"walking"},"calculatedOrientation":{"roll":-34.4183036357655,"pitch":-5.837765428917616,"yaw":-0.2746381936966713},"serverLatency":0,"connectionId":3}}
{"timestamp":"2025-06-15T05:51:16.541Z","data":{"accelerometer":{"x":0.013280050923289183,"y":-0.07341670432727088,"z":0.027148947637030574,"magnitude":0.0793941911263116},"gyroscope":{"x":-0.17682546700462254,"y":-0.5939644391854162,"z":-0.05492763873933426},"orientation":{"alpha":347.4,"beta":0.2,"gamma":-3.3,"absolute":false},"timestamp":"2025-06-15T05:51:16.541Z","dataCount":24,"gps":{"latitude":13.082,"longitude":77.667,"altitude":810.3,"accuracy":100,"speed":0,"heading":0,"timestamp":1749966668558},"battery":{"level":0.09,"charging":false,"chargingTime":0,"dischargingTime":0},"camera":{"active":true,"facingMode":"user","streaming":true,"width":240,"height":240},"network":{"effectiveType":"4g","downlink":10,"rtt":100,"saveData":false},"device":{"userAgent":"Mozilla/5.0 (Linux; Android 10; K) AppleWebKit/537.36 (KHTML, like Gecko) Chrome/137.0.0.0 Mobile Sa","platform":"Linux armv81","language":"en-IN","onLine":true,"hardwareConcurrency":8},"motion":{"isMoving":false,"intensity":9.730605808873689,"type":"stationary"},"calculatedOrientation":{"roll":-69.70598358168716,"pitch":-9.628971166416733,"yaw":-0.05492763873933426},"serverLatency":0,"connectionId":3}}
{"timestamp":"2025-06-15T05:51:16.938Z","data":{"accelerometer":{"x":-0.07734398981534217,"y":-0.01468334086545417,"z":-0.07457021047259389,"magnitude":0.10843620036433323},"gyroscope":{"x":0.1246349065990755,"y":0.44120711216291686,"z":-0.010985527747866847},"orientation":{"alpha":347.4,"beta":0.4,"gamma":-3.2,"absolute":false},"timestamp":"2025-06-15T05:51:16.938Z","dataCount":25,"gps":{"latitude":13.082,"longitude":77.667,"altitude":810.3,"accuracy":100,"speed":0,"heading":0,"timestamp":1749966668558},"battery":{"level":0.09,"charging":false,"chargingTime":0,"dischargingTime":0},"camera":{"active":true,"facingMode":"user","streaming":true,"width":240,"height":240},"network":{"effectiveType":"4g","downlink":10,"rtt":100,"saveData":false},"device":{"userAgent":"Mozilla/5.0 (Linux; Android 10; K) AppleWebKit/537.36 (KHTML, like Gecko) Chrome/137.0.0.0 Mobile Sa","platform":"Linux armv81","language":"en-IN","onLine":true,"hardwareConcurrency":8},"motion":{"isMoving":false,"intensity":9.701563799635668,"type":"stationary"},"calculatedOrientation":{"roll":-168.86060939205132,"pitch":45.50137293410691,"yaw":-0.010985527747866847},"serverLatency":0,"connectionId":3}}
{"timestamp":"2025-06-15T05:51:17.655Z","data":{"accelerometer":{"x":-0.01546879796306843,"y":-0.0029366681730908333,"z":-0.09491404209451879,"magnitude":0.09621113821747022},"gyroscope":{"x":0.024926981319815092,"y":0.008241422432583356,"z":-0.002197105549573369},"orientation":{"alpha":347.4,"beta":0.5,"gamma":-3.1,"absolute":false},"timestamp":"2025-06-15T05:51:17.655Z","dataCount":26,"gps":{"latitude":13.082,"longitude":77.667,"altitude":810.3,"accuracy":100,"speed":0,"heading":0,"timestamp":1749966668558},"battery":{"level":0.09,"charging":false,"chargingTime":0,"dischargingTime":0},"camera":{"active":true,"facingMode":"user","streaming":true,"width":240,"height":240},"network":{"effectiveType":"4g","downlink":10,"rtt":100,"saveData":false},"device":{"userAgent":"Mozilla/5.0 (Linux; Android 10; K) AppleWebKit/537.36 (KHTML, like Gecko) Chrome/137.0.0.0 Mobile Sa","platform":"Linux armv81","language":"en-IN","onLine":true,"hardwareConcurrency":8},"motion":{"isMoving":false,"intensity":9.71378886178253,"type":"stationary"},"calculatedOrientation":{"roll":-178.22781721426273,"pitch":9.25215569676152,"yaw":-0.002197105549573369},"serverLatency":0,"connectionId":3}}
{"timestamp":"2025-06-15T05:51:17.911Z","data":{"accelerometer":{"x":-0.0030937595926136853,"y":-0.0005873336346181664,"z":-0.01898280841890375,"magnitude":0.019242227643494036},"gyroscope":{"x":0.08498539626396302,"y":0.08164828448651668,"z":0.07956057889008533},"orientation":{"alpha":347.4,"beta":0.6,"gamma":-3.1,"absolute":false},"timestamp":"2025-06-15T05:51:17.911Z","dataCount":27,"gps":{"latitude":13.082,"longitude":77.667,"altitude":810.3,"accuracy":100,"speed":0,"heading":0,"timestamp":1749966668558},"battery":{"level":0.09,"charging":false,"chargingTime":0,"dischargingTime":0},"camera":{"active":true,"facingMode":"user","streaming":true,"width":240,"height":240},"network":{"effectiveType":"4g","downlink":10,"rtt":100,"saveData":false},"device":{"userAgent":"Mozilla/5.0 (Linux; Android 10; K) AppleWebKit/537.36 (KHTML, like Gecko) Chrome/137.0.0.0 Mobile Sa","platform":"Linux armv81","language":"en-IN","onLine":true,"hardwareConcurrency":8},"motion":{"isMoving":false,"intensity":9.790757772356507,"type":"stationary"},"calculatedOrientation":{"roll":-178.22781721426273,"pitch":9.252155696761523,"yaw":0.07956057889008533},"serverLatency":0,"connectionId":3}}
{"timestamp":"2025-06-15T05:51:18.269Z","data":{"accelerometer":{"x":-0.0006187519185227369,"y":-0.00011746672692363326,"z":-0.08379656168378076,"magnitude":0.08379892840837694},"gyroscope":{"x":0.016997079252792605,"y":-0.06367034310269667,"z":0.015912115778017058},"orientation":{"alpha":347.4,"beta":0.6,"gamma":-3.1,"absolute":false},"timestamp":"2025-06-15T05:51:18.269Z","dataCount":28,"gps":{"latitude":13.082,"longitude":77.667,"altitude":810.3,"accuracy":100,"speed":0,"heading":0,"timestamp":1749966668558},"battery":{"level":0.09,"charging":false,"chargingTime":0,"dischargingTime":0},"camera":{"active":true,"facingMode":"user","streaming":true,"width":240,"height":240},"network":{"effectiveType":"4g","downlink":10,"rtt":100,"saveData":false},"device":{"userAgent":"Mozilla/5.0 (Linux; Android 10; K) AppleWebKit/537.36 (KHTML, like Gecko) Chrome/137.0.0.0 Mobile Sa","platform":"Linux armv81","language":"en-IN","onLine":true,"hardwareConcurrency":8},"motion":{"isMoving":false,"intensity":9.726201071591623,"type":"stationary"},"calculatedOrientation":{"roll":-179.91968234564544,"pitch":0.42306263717024195,"yaw":0.015912115778017058},"serverLatency":0,"connectionId":3}}
{"timestamp":"2025-06-15T05:51:18.781Z","data":{"accelerometer":{"x":-0.00012375038370454736,"y":-0.00002349334538472665,"z":-0.01675931233675615,"magnitude":0.016759785681675386},"gyroscope":{"x":0.0033994158505585206,"y":-0.09273406862053934,"z":0.0031824231556034106},"orientation":{"alpha":347.4,"beta":0.6,"gamma":-3.1,"absolute":false},"timestamp":"2025-06-15T05:51:18.781Z","dataCount":29,"gps":{"latitude":13.082,"longitude":77.667,"altitude":810.3,"accuracy":100,"speed":0,"heading":0,"timestamp":1749966668558},"battery":{"level":0.09,"charging":false,"chargingTime":0,"dischargingTime":0},"camera":{"active":true,"facingMode":"user","streaming":true,"width":240,"height":240},"network":{"effectiveType":"4g","downlink":10,"rtt":100,"saveData":false},"device":{"userAgent":"Mozilla/5.0 (Linux; Android 10; K) AppleWebKit/537.36 (KHTML, like Gecko) Chrome/137.0.0.0 Mobile Sa","platform":"Linux armv81","language":"en-IN","onLine":true,"hardwareConcurrency":8},"motion":{"isMoving":false,"intensity":9.793240214318326,"type":"stationary"},"calculatedOrientation":{"roll":-179.91968234564544,"pitch":0.42306263717024195,"yaw":0.0031824231556034106},"serverLatency":0,"connectionId":3}}
{"timestamp":"2025-06-15T05:51:19.277Z","data":{"accelerometer":{"x":-0.000024750076740909463,"y":-0.000004698669076945328,"z":-0.08335186246735124,"magnitude":0.0833518662743674},"gyroscope":{"x":0.0006798831701117039,"y":-0.3385468137241079,"z":0.0006364846311206819},"orientation":{"alpha":347.4,"beta":0.6,"gamma":-3.1,"absolute":false},"timestamp":"2025-06-15T05:51:19.277Z","dataCount":30,"gps":{"latitude":13.082,"longitude":77.667,"altitude":810.3,"accuracy":100,"speed":0,"heading":0,"timestamp":1749966668558},"battery":{"level":0.09,"charging":false,"chargingTime":0,"dischargingTime":0},"camera":{"active":true,"facingMode":"user","streaming":true,"width":240,"height":240},"network":{"effectiveType":"4g","downlink":10,"rtt":100,"saveData":false},"device":{"userAgent":"Mozilla/5.0 (Linux; Android 10; K) AppleWebKit/537.36 (KHTML, like Gecko) Chrome/137.0.0.0 Mobile Sa","platform":"Linux armv81","language":"en-IN","onLine":true,"hardwareConcurrency":8},"motion":{"isMoving":false,"intensity":9.726648133725632,"type":"stationary"},"calculatedOrientation":{"roll":-179.99677015126977,"pitch":0.017013115891728933,"yaw":0.0006364846311206819},"serverLatency":0,"connectionId":3}}
{"timestamp":"2025-06-15T05:51:19.806Z","data":{"accelerometer":{"x":-0.000004950015348181891,"y":-9.397338153890656e-7,"z":-0.09667037249347026,"magnitude":0.09667037262477082},"gyroscope":{"x":0.0001359766340223407,"y":0.012290637255178427,"z":-0.07987270307377588},"orientation":{"alpha":347.4,"beta":0.6,"gamma":-3.1,"absolute":false},"timestamp":"2025-06-15T05:51:19.806Z","dataCount":31,"gps":{"latitude":13.082,"longitude":77.667,"altitude":810.3,"accuracy":100,"speed":0,"heading":0,"timestamp":1749966668558},"battery":{"level":0.09,"charging":false,"chargingTime":0,"dischargingTime":0},"camera":{"active":true,"facingMode":"user","streaming":true,"width":240,"height":240},"network":{"effectiveType":"4g","downlink":10,"rtt":100,"saveData":false},"device":{"userAgent":"Mozilla/5.0 (Linux; Android 10; K) AppleWebKit/537.36 (KHTML, like Gecko) Chrome/137.0.0.0 Mobile Sa","platform":"Linux armv81","language":"en-IN","onLine":true,"hardwareConcurrency":8},"motion":{"isMoving":false,"intensity":9.713329627375229,"type":"stationary"},"calculatedOrientation":{"roll":-179.99944302706098,"pitch":0.0029338356768376355,"yaw":-0.07987270307377588},"serverLatency":0,"connectionId":3}}
{"timestamp":"2025-06-15T05:51:20.275Z","data":{"accelerometer":{"x":-9.900030696363782e-7,"y":-1.8794676307781305e-7,"z":-0.01933407449869405,"magnitude":0.019334074524954167},"gyroscope":{"x":0.00002719532680446813,"y":-0.07754187254896433,"z":-0.015974540614755173},"orientation":{"alpha":347.4,"beta":0.6,"gamma":-3.1,"absolute":false},"timestamp":"2025-06-15T05:51:20.275Z","dataCount":32,"gps":{"latitude":13.082,"longitude":77.667,"altitude":810.3,"accuracy":100,"speed":0,"heading":0,"timestamp":1749966668558},"battery":{"level":0.09,"charging":false,"chargingTime":0,"dischargingTime":0},"camera":{"active":true,"facingMode":"user","streaming":true,"width":240,"height":240},"network":{"effectiveType":"4g","downlink":10,"rtt":100,"saveData":false},"device":{"userAgent":"Mozilla/5.0 (Linux; Android 10; K) AppleWebKit/537.36 (KHTML, like Gecko) Chrome/137.0.0.0 Mobile Sa","platform":"Linux armv81","language":"en-IN","onLine":true,"hardwareConcurrency":8},"motion":{"isMoving":false,"intensity":9.790665925475047,"type":"stationary"},"calculatedOrientation":{"roll":-179.99944302706098,"pitch":0.0029338356768376355,"yaw":-0.015974540614755173},"serverLatency":0,"connectionId":3}}
{"timestamp":"2025-06-15T05:51:20.830Z","data":{"accelerometer":{"x":0.07999980199938608,"y":-3.75893526155626e-8,"z":-0.08386681489973882,"magnitude":0.11590345534698025},"gyroscope":{"x":-0.07999456093463912,"y":-0.09550837450979287,"z":-0.08319490812295104},"orientation":{"alpha":347.4,"beta":0.7,"gamma":-3,"absolute":false},"timestamp":"2025-06-15T05:51:20.830Z","dataCount":33,"gps":{"latitude":13.082,"longitude":77.667,"altitude":810.3,"accuracy":100,"speed":0,"heading":0,"timestamp":1749966668558},"battery":{"level":0.09,"charging":false,"chargingTime":0,"dischargingTime":0},"camera":{"active":true,"facingMode":"user","streaming":true,"width":240,"height":240},"network":{"effectiveType":"4g","downlink":10,"rtt":100,"saveData":false},"device":{"userAgent":"Mozilla/5.0 (Linux; Android 10; K) AppleWebKit/537.36 (KHTML, like Gecko) Chrome/137.0.0.0 Mobile Sa","platform":"Linux armv81","language":"en-IN","onLine":true,"hardwareConcurrency":8},"motion":{"isMoving":false,"intensity":9.69409654465302,"type":"stationary"},"calculatedOrientation":{"roll":-179.99997431986344,"pitch":-43.6481541663202,"yaw":-0.08319490812295104},"serverLatency":0,"connectionId":3}}
{"timestamp":"2025-06-15T05:51:21.283Z","data":{"accelerometer":{"x":0.01599996039987721,"y":-7.51787052311252e-9,"z":-0.016773362979947762,"magnitude":0.02318069106939604},"gyroscope":{"x":0.06400108781307216,"y":-0.019101674901958562,"z":-0.01663898162459021},"orientation":{"alpha":347.4,"beta":0.7,"gamma":-3,"absolute":false},"timestamp":"2025-06-15T05:51:21.283Z","dataCount":34,"gps":{"latitude":13.082,"longitude":77.667,"altitude":810.3,"accuracy":100,"speed":0,"heading":0,"timestamp":1749966668558},"battery":{"level":0.09,"charging":false,"chargingTime":0,"dischargingTime":0},"camera":{"active":true,"facingMode":"user","streaming":true,"width":240,"height":240},"network":{"effectiveType":"4g","downlink":10,"rtt":100,"saveData":false},"device":{"userAgent":"Mozilla/5.0 (Linux; Android 10; K) AppleWebKit/537.36 (KHTML, like Gecko) Chrome/137.0.0.0 Mobile Sa","platform":"Linux armv81","language":"en-IN","onLine":true,"hardwareConcurrency":8},"motion":{"isMoving":false,"intensity":9.786819308930605,"type":"stationary"},"calculatedOrientation":{"roll":-179.99997431986344,"pitch":-43.64815416632019,"yaw":-0.01663898162459021},"serverLatency":0,"connectionId":3}}
{"timestamp":"2025-06-15T05:51:21.853Z","data":{"accelerometer":{"x":0.0031999920799754417,"y":-1.5035741046225033e-9,"z":-0.08335467259598955,"magnitude":0.0834160739479899},"gyroscope":{"x":0.01280021756261443,"y":-0.08382033498039172,"z":-0.0033277963249180413},"orientation":{"alpha":347.4,"beta":0.7,"gamma":-3,"absolute":false},"timestamp":"2025-06-15T05:51:21.853Z","dataCount":35,"gps":{"latitude":13.082,"longitude":77.667,"altitude":810.3,"accuracy":100,"speed":0,"heading":0,"timestamp":1749966668558},"battery":{"level":0.09,"charging":false,"chargingTime":0,"dischargingTime":0},"camera":{"active":true,"facingMode":"user","streaming":true,"width":240,"height":240},"network":{"effectiveType":"4g","downlink":10,"rtt":100,"saveData":false},"device":{"userAgent":"Mozilla/5.0 (Linux; Android 10; K) AppleWebKit/537.36 (KHTML, like Gecko) Chrome/137.0.0.0 Mobile Sa","platform":"Linux armv81","language":"en-IN","onLine":true,"hardwareConcurrency":8},"motion":{"isMoving":false,"intensity":9.72658392605201,"type":"stationary"},"calculatedOrientation":{"roll":-179.99999896648328,"pitch":-2.1985096078105113,"yaw":-0.0033277963249180413},"serverLatency":0,"connectionId":3}}
{"timestamp":"2025-06-15T05:51:22.486Z","data":{"accelerometer":{"x":0.0006399984159950883,"y":-3.0071482092450054e-10,"z":-0.09667093451919792,"magnitude":0.09667305301265461},"gyroscope":{"x":0.002560043512522885,"y":-0.09676406699607835,"z":-0.000665559264983608},"orientation":{"alpha":347.3,"beta":0.8,"gamma":-3,"absolute":false},"timestamp":"2025-06-15T05:51:22.486Z","dataCount":36,"gps":{"latitude":13.082,"longitude":77.667,"altitude":810.3,"accuracy":100,"speed":0,"heading":0,"timestamp":1749966668558},"battery":{"level":0.09,"charging":false,"chargingTime":0,"dischargingTime":0},"camera":{"active":true,"facingMode":"user","streaming":true,"width":240,"height":240},"network":{"effectiveType":"4g","downlink":10,"rtt":100,"saveData":false},"device":{"userAgent":"Mozilla/5.0 (Linux; Android 10; K) AppleWebKit/537.36 (KHTML, like Gecko) Chrome/137.0.0.0 Mobile Sa","platform":"Linux armv81","language":"en-IN","onLine":true,"hardwareConcurrency":8},"motion":{"isMoving":false,"intensity":9.713326946987346,"type":"stationary"},"calculatedOrientation":{"roll":-179.9999998217697,"pitch":-0.3793143471478923,"yaw":-0.000665559264983608},"serverLatency":0,"connectionId":3}}
{"timestamp":"2025-06-15T05:51:23.088Z","data":{"accelerometer":{"x":0.0001279996831990176,"y":-6.014296418490009e-11,"z":-0.09933418690383959,"magnitude":0.09933426937248713},"gyroscope":{"x":0.0005120087025045771,"y":0.060647186600784345,"z":-0.00013311185299672154},"orientation":{"alpha":347.3,"beta":0.8,"gamma":-3,"absolute":false},"timestamp":"2025-06-15T05:51:23.088Z","dataCount":37,"gps":{"latitude":13.082,"longitude":77.667,"altitude":810.3,"accuracy":100,"speed":0,"heading":0,"timestamp":1749966668558},"battery":{"level":0.09,"charging":false,"chargingTime":0,"dischargingTime":0},"camera":{"active":true,"facingMode":"user","streaming":true,"width":240,"height":240},"network":{"effectiveType":"4g","downlink":10,"rtt":100,"saveData":false},"device":{"userAgent":"Mozilla/5.0 (Linux; Android 10; K) AppleWebKit/537.36 (KHTML, like Gecko) Chrome/137.0.0.0 Mobile Sa","platform":"Linux armv81","language":"en-IN","onLine":true,"hardwareConcurrency":8},"motion":{"isMoving":false,"intensity":9.710665730627513,"type":"stationary"},"calculatedOrientation":{"roll":-179.99999996530966,"pitch":-0.07382994511558358,"yaw":-0.00013311185299672154},"serverLatency":0,"connectionId":3}}
{"timestamp":"2025-06-15T05:51:23.279Z","data":{"accelerometer":{"x":0.000025599936639803515,"y":-1.2028592836980012e-11,"z":-0.09986683738076792,"magnitude":0.09986684066192092},"gyroscope":{"x":0.00010240174050091537,"y":0.012129437320156866,"z":-0.000026622370599344307},"orientation":{"alpha":347.3,"beta":0.8,"gamma":-3,"absolute":false},"timestamp":"2025-06-15T05:51:23.279Z","dataCount":38,"gps":{"latitude":13.082,"longitude":77.667,"altitude":810.3,"accuracy":100,"speed":0,"heading":0,"timestamp":1749966668558},"battery":{"level":0.09,"charging":false,"chargingTime":0,"dischargingTime":0},"camera":{"active":true,"facingMode":"user","streaming":true,"width":240,"height":240},"network":{"effectiveType":"4g","downlink":10,"rtt":100,"saveData":false},"device":{"userAgent":"Mozilla/5.0 (Linux; Android 10; K) AppleWebKit/537.36 (KHTML, like Gecko) Chrome/137.0.0.0 Mobile Sa","platform":"Linux armv81","language":"en-IN","onLine":true,"hardwareConcurrency":8},"motion":{"isMoving":false,"intensity":9.71013315933808,"type":"stationary"},"calculatedOrientation":{"roll":-179.99999999309895,"pitch":-0.014687240845960108,"yaw":-0.000026622370599344307},"serverLatency":0,"connectionId":3}}
{"timestamp":"2025-06-15T05:51:24.112Z","data":{"accelerometer":{"x":0.000005119987327960701,"y":-2.4057185673960024e-12,"z":-0.09997336747615358,"magnitude":0.09997336760725986},"gyroscope":{"x":0.00002048034810018307,"y":0.002425887464031372,"z":-0.000005324474119868859},"orientation":{"alpha":347.3,"beta":0.8,"gamma":-3,"absolute":false},"timestamp":"2025-06-15T05:51:24.112Z","dataCount":39,"gps":{"latitude":13.082,"longitude":77.667,"altitude":810.3,"accuracy":100,"speed":0,"heading":0,"timestamp":1749966668558},"battery":{"level":0.09,"charging":false,"chargingTime":0,"dischargingTime":0},"camera":{"active":true,"facingMode":"user","streaming":true,"width":240,"height":240},"network":{"effectiveType":"4g","downlink":10,"rtt":100,"saveData":false},"device":{"userAgent":"Mozilla/5.0 (Linux; Android 10; K) AppleWebKit/537.36 (KHTML, like Gecko) Chrome/137.0.0.0 Mobile Sa","platform":"Linux armv81","language":"en-IN","onLine":true,"hardwareConcurrency":8},"motion":{"isMoving":false,"intensity":9.71002663239274,"type":"stationary"},"calculatedOrientation":{"roll":-179.99999999862126,"pitch":-0.002934318130937353,"yaw":-0.000005324474119868859},"serverLatency":0,"connectionId":3}}
{"timestamp":"2025-06-15T05:51:24.382Z","data":{"accelerometer":{"x":0.0000010239974655921398,"y":-4.811437134792003e-13,"z":-0.019994673495230708,"magnitude":0.019994673521451962},"gyroscope":{"x":0.000004096069620036613,"y":-0.07951482250719373,"z":-0.0000010648948239737712},"orientation":{"alpha":347.3,"beta":0.8,"gamma":-3,"absolute":false},"timestamp":"2025-06-15T05:51:24.382Z","dataCount":40,"gps":{"latitude":13.082,"longitude":77.667,"altitude":810.3,"accuracy":100,"speed":0,"heading":0,"timestamp":1749966668558},"battery":{"level":0.09,"charging":false,"chargingTime":0,"dischargingTime":0},"camera":{"active":true,"facingMode":"user","streaming":true,"width":240,"height":240},"network":{"effectiveType":"4g","downlink":10,"rtt":100,"saveData":false},"device":{"userAgent":"Mozilla/5.0 (Linux; Android 10; K) AppleWebKit/537.36 (KHTML, like Gecko) Chrome/137.0.0.0 Mobile Sa","platform":"Linux armv81","language":"en-IN","onLine":true,"hardwareConcurrency":8},"motion":{"isMoving":false,"intensity":9.790005326478548,"type":"stationary"},"calculatedOrientation":{"roll":-179.99999999862126,"pitch":-0.002934318130937353,"yaw":-0.0000010648948239737712},"serverLatency":0,"connectionId":3}}
{"timestamp":"2025-06-15T05:51:25.034Z","data":{"accelerometer":{"x":2.047994931184279e-7,"y":-9.622874269584006e-14,"z":-0.0039989346990461395,"magnitude":0.00399893470429039},"gyroscope":{"x":8.192139240073224e-7,"y":-0.09590296450143876,"z":0.07999978702103522},"orientation":{"alpha":347.3,"beta":0.8,"gamma":-3,"absolute":false},"timestamp":"2025-06-15T05:51:25.034Z","dataCount":41,"gps":{"latitude":13.082,"longitude":77.667,"altitude":810.3,"accuracy":100,"speed":0,"heading":0,"timestamp":1749966668558},"battery":{"level":0.09,"charging":false,"chargingTime":0,"dischargingTime":0},"camera":{"active":true,"facingMode":"user","streaming":true,"width":240,"height":240},"network":{"effectiveType":"4g","downlink":10,"rtt":100,"saveData":false},"device":{"userAgent":"Mozilla/5.0 (Linux; Android 10; K) AppleWebKit/537.36 (KHTML, like Gecko) Chrome/137.0.0.0 Mobile Sa","platform":"Linux armv81","language":"en-IN","onLine":true,"hardwareConcurrency":8},"motion":{"isMoving":false,"intensity":9.80600106529571,"type":"stationary"},"calculatedOrientation":{"roll":-179.99999999862126,"pitch":-0.0029343181309373543,"yaw":0.07999978702103522},"serverLatency":0,"connectionId":3}}
{"timestamp":"2025-06-15T05:51:25.265Z","data":{"accelerometer":{"x":4.095989862368557e-8,"y":-1.9245748539168003e-14,"z":-0.0007997869398092276,"magnitude":0.0007997869408580778},"gyroscope":{"x":1.6384278480146448e-7,"y":-0.019180592900287743,"z":0.015999957404207038},"orientation":{"alpha":347.3,"beta":0.8,"gamma":-3,"absolute":false},"timestamp":"2025-06-15T05:51:25.264Z","dataCount":42,"gps":{"latitude":13.082,"longitude":77.667,"altitude":810.3,"accuracy":100,"speed":0,"heading":0,"timestamp":1749966668558},"battery":{"level":0.09,"charging":false,"chargingTime":0,"dischargingTime":0},"camera":{"active":true,"facingMode":"user","streaming":true,"width":240,"height":240},"network":{"effectiveType":"4g","downlink":10,"rtt":100,"saveData":false},"device":{"userAgent":"Mozilla/5.0 (Linux; Android 10; K) AppleWebKit/537.36 (KHTML, like Gecko) Chrome/137.0.0.0 Mobile Sa","platform":"Linux armv81","language":"en-IN","onLine":true,"hardwareConcurrency":8},"motion":{"isMoving":false,"intensity":9.809200213059142,"type":"stationary"},"calculatedOrientation":{"roll":-179.99999999862126,"pitch":-0.0029343181309373543,"yaw":0.015999957404207038},"serverLatency":0,"connectionId":3}}
{"timestamp":"2025-06-15T05:51:25.765Z","data":{"accelerometer":{"x":8.191979724737114e-9,"y":-3.849149707833599e-15,"z":-0.08015995738796186,"magnitude":0.08015995738796228},"gyroscope":{"x":3.27685569602929e-8,"y":-0.0038361185800575483,"z":0.0031999914808414076},"orientation":{"alpha":347.3,"beta":0.8,"gamma":-3,"absolute":false},"timestamp":"2025-06-15T05:51:25.765Z","dataCount":43,"gps":{"latitude":13.082,"longitude":77.667,"altitude":810.3,"accuracy":100,"speed":0,"heading":0,"timestamp":1749966668558},"battery":{"level":0.09,"charging":false,"chargingTime":0,"dischargingTime":0},"camera":{"active":true,"facingMode":"user","streaming":true,"width":240,"height":240},"network":{"effectiveType":"4g","downlink":10,"rtt":100,"saveData":false},"device":{"userAgent":"Mozilla/5.0 (Linux; Android 10; K) AppleWebKit/537.36 (KHTML, like Gecko) Chrome/137.0.0.0 Mobile Sa","platform":"Linux armv81","language":"en-IN","onLine":true,"hardwareConcurrency":8},"motion":{"isMoving":false,"intensity":9.729840042612038,"type":"stationary"},"calculatedOrientation":{"roll":-179.99999999999724,"pitch":-0.00000585536568853846,"yaw":0.0031999914808414076},"serverLatency":0,"connectionId":3}}
{"timestamp":"2025-06-15T05:51:26.270Z","data":{"accelerometer":{"x":0.08000000163839595,"y":-7.698299415667197e-16,"z":-0.016031991477592364,"magnitude":0.08159059389954794},"gyroscope":{"x":-0.07999999344628862,"y":-0.08076722371601151,"z":0.0006399982961682814},"orientation":{"alpha":347.3,"beta":0.8,"gamma":-3,"absolute":false},"timestamp":"2025-06-15T05:51:26.270Z","dataCount":44,"gps":{"latitude":13.082,"longitude":77.667,"altitude":810.3,"accuracy":100,"speed":0,"heading":0,"timestamp":1749966668558},"battery":{"level":0.09,"charging":false,"chargingTime":0,"dischargingTime":0},"camera":{"active":true,"facingMode":"user","streaming":true,"width":240,"height":240},"network":{"effectiveType":"4g","downlink":10,"rtt":100,"saveData":false},"device":{"userAgent":"Mozilla/5.0 (Linux; Android 10; K) AppleWebKit/537.36 (KHTML, like Gecko) Chrome/137.0.0.0 Mobile Sa","platform":"Linux armv81","language":"en-IN","onLine":true,"hardwareConcurrency":8},"motion":{"isMoving":false,"intensity":9.728409406100452,"type":"stationary"},"calculatedOrientation":{"roll":-179.99999999999724,"pitch":-78.66803847793862,"yaw":0.0006399982961682814},"serverLatency":0,"connectionId":3}}
{"timestamp":"2025-06-15T05:51:26.768Z","data":{"accelerometer":{"x":0.01600000032767919,"y":-1.5396598831334394e-16,"z":-0.4032063982955185,"magnitude":0.4035237287160819},"gyroscope":{"x":-8.095999998689258,"y":-57.4561534447432,"z":4.240127999659234},"orientation":{"alpha":340,"beta":-0.9,"gamma":-13.8,"absolute":false},"timestamp":"2025-06-15T05:51:26.768Z","dataCount":45,"gps":{"latitude":13.082,"longitude":77.667,"altitude":810.3,"accuracy":100,"speed":0,"heading":0,"timestamp":1749966668558},"battery":{"level":0.09,"charging":false,"chargingTime":0,"dischargingTime":0},"camera":{"active":true,"facingMode":"user","streaming":true,"width":240,"height":240},"network":{"effectiveType":"4g","downlink":10,"rtt":100,"saveData":false},"device":{"userAgent":"Mozilla/5.0 (Linux; Android 10; K) AppleWebKit/537.36 (KHTML, like Gecko) Chrome/137.0.0.0 Mobile Sa","platform":"Linux armv81","language":"en-IN","onLine":true,"hardwareConcurrency":8},"motion":{"isMoving":false,"intensity":9.40647627128392,"type":"stationary"},"calculatedOrientation":{"roll":-179.99999999999997,"pitch":-2.2724137566250087,"yaw":4.240127999659234},"serverLatency":0,"connectionId":3}}
{"timestamp":"2025-06-15T05:51:27.265Z","data":{"accelerometer":{"x":-0.07679999993446417,"y":-3.0793197662668783e-17,"z":-0.4806412796591037,"magnitude":0.4867384099311194},"gyroscope":{"x":0.7008000002621486,"y":50.66876931105137,"z":-5.711974400068153},"orientation":{"alpha":344.1,"beta":-2.6,"gamma":-20.6,"absolute":false},"timestamp":"2025-06-15T05:51:27.265Z","dataCount":46,"gps":{"latitude":13.082,"longitude":77.667,"altitude":810.3,"accuracy":100,"speed":0,"heading":0,"timestamp":1749966668558},"battery":{"level":0.09,"charging":false,"chargingTime":0,"dischargingTime":0},"camera":{"active":true,"facingMode":"user","streaming":true,"width":240,"height":240},"network":{"effectiveType":"4g","downlink":10,"rtt":100,"saveData":false},"device":{"userAgent":"Mozilla/5.0 (Linux; Android 10; K) AppleWebKit/537.36 (KHTML, like Gecko) Chrome/137.0.0.0 Mobile Sa","platform":"Linux armv81","language":"en-IN","onLine":true,"hardwareConcurrency":8},"motion":{"isMoving":false,"intensity":9.323261590068881,"type":"stationary"},"calculatedOrientation":{"roll":-180,"pitch":9.078350620670525,"yaw":-5.711974400068153},"serverLatency":0,"connectionId":3}}
{"timestamp":"2025-06-15T05:51:27.793Z","data":{"accelerometer":{"x":-1.215359999986893,"y":0.24000000000000002,"z":2.7838717440681795,"magnitude":3.047071022636221},"gyroscope":{"x":-15.21983999994757,"y":-75.30624613778974,"z":-54.58239488001363},"orientation":{"alpha":328.2,"beta":-3.2,"gamma":-51.4,"absolute":false},"timestamp":"2025-06-15T05:51:27.793Z","dataCount":47,"gps":{"latitude":13.082,"longitude":77.667,"altitude":810.3,"accuracy":100,"speed":0,"heading":0,"timestamp":1749966668558},"battery":{"level":0.09,"charging":false,"chargingTime":0,"dischargingTime":0},"camera":{"active":true,"facingMode":"user","streaming":true,"width":240,"height":240},"network":{"effectiveType":"4g","downlink":10,"rtt":100,"saveData":false},"device":{"userAgent":"Mozilla/5.0 (Linux; Android 10; K) AppleWebKit/537.36 (KHTML, like Gecko) Chrome/137.0.0.0 Mobile Sa","platform":"Linux armv81","language":"en-IN","onLine":true,"hardwareConcurrency":8},"motion":{"isMoving":true,"intensity":6.76292897736378,"type":"running"},"calculatedOrientation":{"roll":4.927335827322453,"pitch":23.50703858925569,"yaw":-54.58239488001363},"serverLatency":0,"connectionId":3}}
{"timestamp":"2025-06-15T05:51:28.266Z","data":{"accelerometer":{"x":-1.4430719999973787,"y":-0.19200000000000003,"z":0.7967743488136356,"magnitude":1.6595692694503075},"gyroscope":{"x":-1.0439679999895137,"y":94.85875077244208,"z":-83.31647897600273},"orientation":{"alpha":340.4,"beta":43.6,"gamma":-50.8,"absolute":false},"timestamp":"2025-06-15T05:51:28.266Z","dataCount":48,"gps":{"latitude":13.082,"longitude":77.667,"altitude":810.3,"accuracy":100,"speed":0,"heading":0,"timestamp":1749966668558},"battery":{"level":0.09,"charging":false,"chargingTime":0,"dischargingTime":0},"camera":{"active":true,"facingMode":"user","streaming":true,"width":320,"height":240},"network":{"effectiveType":"4g","downlink":10,"rtt":100,"saveData":false},"device":{"userAgent":"Mozilla/5.0 (Linux; Android 10; K) AppleWebKit/537.36 (KHTML, like Gecko) Chrome/137.0.0.0 Mobile Sa","platform":"Linux armv81","language":"en-IN","onLine":true,"hardwareConcurrency":8},"motion":{"isMoving":true,"intensity":8.150430730549694,"type":"walking"},"calculatedOrientation":{"roll":-13.548359070041045,"pitch":60.40593714911359,"yaw":-83.31647897600273},"serverLatency":0,"connectionId":3}}
{"timestamp":"2025-06-15T05:51:28.824Z","data":{"accelerometer":{"x":-0.20861439999947562,"y":-0.8384,"z":-0.560645130237273,"magnitude":1.0299308180387214},"gyroscope":{"x":40.9112064000021,"y":105.69175015448842,"z":-91.54329579520054},"orientation":{"alpha":290.4,"beta":71.9,"gamma":35.2,"absolute":false},"timestamp":"2025-06-15T05:51:28.824Z","dataCount":49,"gps":{"latitude":13.082,"longitude":77.667,"altitude":810.3,"accuracy":100,"speed":0,"heading":0,"timestamp":1749966668558},"battery":{"level":0.09,"charging":false,"chargingTime":0,"dischargingTime":0},"camera":{"active":true,"facingMode":"user","streaming":true,"width":320,"height":240},"network":{"effectiveType":"4g","downlink":10,"rtt":100,"saveData":false},"device":{"userAgent":"Mozilla/5.0 (Linux; Android 10; K) AppleWebKit/537.36 (KHTML, like Gecko) Chrome/137.0.0.0 Mobile Sa","platform":"Linux armv81","language":"en-IN","onLine":true,"hardwareConcurrency":8},"motion":{"isMoving":false,"intensity":8.780069181961279,"type":"walking"},"calculatedOrientation":{"roll":-123.77097961353344,"pitch":11.686224507989447,"yaw":-91.54329579520054},"serverLatency":0,"connectionId":3}}
{"timestamp":"2025-06-15T05:51:29.306Z","data":{"accelerometer":{"x":-0.2817228799998951,"y":-0.16767999999999994,"z":0.36787097395254553,"magnitude":0.49276101407500744},"gyroscope":{"x":32.74224128000042,"y":16.01835003089768,"z":10.571340840959905},"orientation":{"alpha":54.6,"beta":109.3,"gamma":-76.2,"absolute":false},"timestamp":"2025-06-15T05:51:29.305Z","dataCount":50,"gps":{"latitude":13.082,"longitude":77.667,"altitude":810.3,"accuracy":100,"speed":0,"heading":0,"timestamp":1749966668558},"battery":{"level":0.09,"charging":false,"chargingTime":0,"dischargingTime":0},"camera":{"active":true,"facingMode":"user","streaming":true,"width":240,"height":240},"network":{"effectiveType":"4g","downlink":10,"rtt":100,"saveData":false},"device":{"userAgent":"Mozilla/5.0 (Linux; Android 10; K) AppleWebKit/537.36 (KHTML, like Gecko) Chrome/137.0.0.0 Mobile Sa","platform":"Linux armv81","language":"en-IN","onLine":true,"hardwareConcurrency":8},"motion":{"isMoving":false,"intensity":9.317238985924993,"type":"stationary"},"calculatedOrientation":{"roll":-24.50406724380807,"pitch":34.87047398026403,"yaw":10.571340840959905},"serverLatency":0,"connectionId":3}}
{"timestamp":"2025-06-15T05:51:29.841Z","data":{"accelerometer":{"x":-0.136344575999979,"y":-0.9135360000000001,"z":-0.006425805209490876,"magnitude":0.9236769769097877},"gyroscope":{"x":-43.691551743999916,"y":-133.9963299938205,"z":76.91426816819198},"orientation":{"alpha":231.6,"beta":83.9,"gamma":82.1,"absolute":false},"timestamp":"2025-06-15T05:51:29.841Z","dataCount":51,"gps":{"latitude":13.082,"longitude":77.667,"altitude":810.3,"accuracy":100,"speed":0,"heading":0,"timestamp":1749966668558},"battery":{"level":0.09,"charging":false,"chargingTime":0,"dischargingTime":0},"camera":{"active":true,"facingMode":"user","streaming":true,"width":240,"height":240},"network":{"effectiveType":"4g","downlink":10,"rtt":100,"saveData":false},"device":{"userAgent":"Mozilla/5.0 (Linux; Android 10; K) AppleWebKit/537.36 (KHTML, like Gecko) Chrome/137.0.0.0 Mobile Sa","platform":"Linux armv81","language":"en-IN","onLine":true,"hardwareConcurrency":8},"motion":{"isMoving":false,"intensity":8.886323023090213,"type":"walking"},"calculatedOrientation":{"roll":-90.40301142663668,"pitch":8.488486589685355,"yaw":76.91426816819198},"serverLatency":0,"connectionId":3}}
{"timestamp":"2025-06-15T05:51:30.287Z","data":{"accelerometer":{"x":-0.1872689151999958,"y":-0.02270720000000004,"z":0.7987148389581018,"magnitude":0.8206891357291686},"gyroscope":{"x":-20.338310348799983,"y":-0.4792659987640775,"z":9.222853633638394},"orientation":{"alpha":302.5,"beta":60.5,"gamma":29,"absolute":false},"timestamp":"2025-06-15T05:51:30.287Z","dataCount":52,"gps":{"latitude":13.082,"longitude":77.667,"altitude":810.3,"accuracy":100,"speed":0,"heading":0,"timestamp":1749966668558},"battery":{"level":0.09,"charging":false,"chargingTime":0,"dischargingTime":0},"camera":{"active":true,"facingMode":"user","streaming":true,"width":240,"height":240},"network":{"effectiveType":"4g","downlink":10,"rtt":100,"saveData":false},"device":{"userAgent":"Mozilla/5.0 (Linux; Android 10; K) AppleWebKit/537.36 (KHTML, like Gecko) Chrome/137.0.0.0 Mobile Sa","platform":"Linux armv81","language":"en-IN","onLine":true,"hardwareConcurrency":8},"motion":{"isMoving":false,"intensity":8.989310864270832,"type":"walking"},"calculatedOrientation":{"roll":-1.6284615163914955,"pitch":13.190236099682918,"yaw":9.222853633638394},"serverLatency":0,"connectionId":3}}
